date,district,division,lat,lon,temp_c,humidity,pressure,wind_speed,clouds,rain,aqi,pm2_5,pm10,o3,no2,so2,co
2025-11-12,Bagerhat,Khulna,22.655478,89.794181,27.4,37,1013,3.11,3,0.0,5,148.22,165.13,198.02,4.38,41.15,629.52
2025-11-12,Bandarban,Chattogram,21.787476,92.412475,30.99,34,1011,1.27,4,0.0,5,79.05,85.13,151.88,1.2,5.03,355.1
2025-11-12,Barguna,Barishal,22.131336,90.117243,26.56,45,1013,3.49,11,0.0,4,71.09,79.09,174.06,0.96,22.33,276.43
2025-11-12,Barishal,Barishal,22.493403,90.354801,27.26,41,1013,3.2,7,0.0,5,78.94,87.53,172.93,1.03,21.24,300.29
2025-11-12,Bhola,Barishal,22.143569,90.790409,25.52,58,1013,3.81,1,0.0,4,72.3,80.85,167.01,0.71,13.99,268.64
2025-11-12,Bogura,Rajshahi,24.850066,89.372843,25.97,43,1014,2.42,0,0.0,5,150.11,171.61,162.98,6.28,22.8,676.56
2025-11-12,Brahmanbaria,Chattogram,23.9606,91.119089,29.06,51,1012,3.09,20,0.0,5,87.43,96.93,167.42,2.12,14.82,374.77
2025-11-12,Chandpur,Chattogram,23.224176,90.6531,27.1,47,1013,2.89,3,0.0,5,103.63,115.19,146.19,1.88,15.79,412.3
2025-11-12,Chapai Nawabganj,Rajshahi,24.599887,88.285047,26.02,36,1014,2.88,0,0.0,5,130.44,152.18,139.41,8.13,28.93,699.49
2025-11-12,Chattogram,Chattogram,22.333778,91.834435,29.93,37,1012,2.06,2,0.0,5,82.51,89.61,152.99,1.0,8.75,361.93
2025-11-12,Chuadanga,Khulna,23.643661,88.846448,26.87,30,1014,2.84,1,0.0,5,184.79,218.7,175.32,20.27,54.99,987.35
2025-11-12,Cox's Bazar,Chattogram,21.176647,92.003505,26.04,65,1012,5.09,12,0.0,5,76.68,84.68,145.93,0.77,6.24,339.22
2025-11-12,Cumilla,Chattogram,23.461061,91.180875,26.76,57,1012,3.08,5,0.0,5,92.27,102.35,161.41,1.76,14.36,382.86
2025-11-12,Dhaka,Dhaka,23.764386,90.389014,26.98,44,1013,3.09,3,0.0,5,123.02,137.03,159.81,2.97,20.36,516.46
2025-11-12,Dinajpur,Rangpur,25.626071,88.634623,25.23,47,1014,2.32,0,0.0,5,141.46,162.79,163.79,5.43,21.31,661.02
2025-11-12,Faridpur,Dhaka,23.604018,89.841554,26.75,38,1013,3.18,4,0.0,5,150.28,168.92,170.48,4.87,27.07,649.3
2025-11-12,Feni,Chattogram,23.01276,91.404923,26.43,62,1012,3.59,4,0.0,5,90.78,100.08,163.94,1.42,12.49,384.16
2025-11-12,Gaibandha,Rangpur,25.086001,89.869644,26.29,52,1013,2.75,0,0.0,5,159.8,180.41,150.83,4.38,17.43,701.75
2025-11-12,Gazipur,Dhaka,23.999756,90.417363,27.01,44,1013,3.09,4,0.0,5,117.77,131.42,160.32,3.02,17.65,504.9
2025-11-12,Gopalganj,Dhaka,23.004994,89.830318,27.22,36,1013,3.42,3,0.0,5,125.91,140.87,181.82,3.57,30.43,526.34
2025-11-12,Habiganj,Sylhet,24.374603,91.414027,27.93,54,1012,1.74,3,0.0,5,110.89,124.58,173.96,4.53,15.44,523.68
2025-11-12,Jamalpur,Mymensingh,24.925587,89.943668,26.19,53,1013,2.69,0,0.0,5,161.72,182.29,153.89,4.57,18.5,705.12
2025-11-12,Jashore,Khulna,23.166526,89.209442,26.92,34,1013,3.05,3,0.0,5,192.4,219.64,196.86,11.42,48.62,881.31
2025-11-12,Jhalokathi,Barishal,22.56239,90.174282,27.07,41,1013,3.32,7,0.0,5,80.58,89.32,175.49,1.12,24.19,308.9
2025-11-12,Jhenaidah,Khulna,23.544696,89.173194,26.67,33,1014,2.7,3,0.0,5,191.96,224.16,182.89,17.0,51.6,956.79
2025-11-12,Joypurhat,Rajshahi,25.111402,88.98842,25.53,44,1014,2.36,0,0.0,5,142.42,166.35,154.57,6.88,19.91,717.07
2025-11-12,Khagrachhari,Chattogram,23.1078,91.988996,29.1,44,1012,1.42,3,0.0,5,97.73,107.11,161.77,1.7,11.21,434.72
2025-11-12,Khulna,Khulna,22.937209,89.285274,26.92,36,1013,3.48,3,0.0,5,186.4,211.06,202.38,9.71,49.9,837.11
2025-11-12,Kishoreganj,Dhaka,24.433982,90.785723,27.13,56,1013,2.19,2,0.0,5,86.31,96.17,171.73,1.74,13.93,384.81
2025-11-12,Kurigram,Rangpur,25.813013,89.643052,25.25,54,1013,1.19,0,0.0,5,163.32,183.31,144.76,4.02,15.86,742.73
2025-11-12,Kushtia,Khulna,23.898795,89.129554,26.59,33,1014,2.74,1,0.0,5,176.7,206.78,176.78,15.36,45.45,910.23
2025-11-12,Lakshmipur,Chattogram,22.944537,90.827635,27.23,49,1013,3.49,5,0.0,5,85.55,94.65,162.42,1.2,14.96,335.18
2025-11-12,Lalmonirhat,Rangpur,25.916351,89.446139,25.92,50,1014,1.99,0,0.0,5,160.21,179.85,152.86,4.36,18.29,714.76
2025-11-12,Madaripur,Dhaka,23.167518,90.204727,27.95,36,1013,3.45,2,0.0,5,93.75,104.01,166.09,1.56,21.38,370.07
2025-11-12,Magura,Khulna,23.488077,89.420182,26.89,33,1013,2.81,3,0.0,5,190.31,216.3,192.78,8.22,37.81,848.52
2025-11-12,Manikganj,Dhaka,23.832984,89.966688,26.58,44,1013,3.0,4,0.0,5,160.18,180.16,166.12,5.33,26.07,698.62
2025-11-12,Meherpur,Khulna,23.781785,88.636937,26.9,29,1014,2.99,1,0.0,5,171.47,201.46,164.73,19.19,56.99,937.58
2025-11-12,Moulvibazar,Sylhet,24.488082,91.763018,26.73,60,1012,1.69,3,0.0,5,119.01,133.81,169.29,5.02,13.38,574.18
2025-11-12,Munshiganj,Dhaka,23.54838,90.534972,28.35,38,1013,2.99,2,0.0,5,106.89,118.96,156.3,2.23,18.16,438.53
2025-11-12,Mymensingh,Mymensingh,24.888931,90.384519,26.51,57,1013,1.71,0,0.0,5,150.83,169.42,154.34,3.36,15.14,663.43
2025-11-12,Naogaon,Rajshahi,24.807323,88.944545,25.87,39,1014,2.62,0,0.0,5,142.81,166.61,154.51,6.97,19.52,720.31
2025-11-12,Narail,Khulna,25.074884,90.391651,26.91,55,1013,1.53,0,0.0,5,155.66,175.16,151.14,3.3,14.42,689.03
2025-11-12,Narayanganj,Dhaka,23.623673,90.498807,27.01,38,1013,3.06,2,0.0,5,112.33,125.19,158.31,2.62,17.9,471.73
2025-11-12,Narsingdi,Dhaka,23.919715,90.715298,27.16,50,1013,3.1,4,0.0,5,100.64,112.43,162.1,2.48,15.29,434.39
2025-11-12,Natore,Rajshahi,24.413185,88.986668,26.54,33,1014,2.53,0,0.0,5,143.6,167.13,154.37,7.14,18.73,726.81
2025-11-12,Netrokona,Mymensingh,24.891567,90.712533,27.28,57,1013,1.35,0,0.0,5,121.08,135.5,168.52,2.31,14.37,530.08
2025-11-12,Nilphamari,Rangpur,25.933927,88.853459,25.39,49,1014,2.27,0,0.0,5,153.59,175.4,158.74,5.23,21.76,701.73
2025-11-12,Noakhali,Chattogram,22.25408,91.17144,24.54,66,1013,4.92,1,0.0,5,76.73,85.0,164.49,0.77,12.66,301.21
2025-11-12,Pabna,Rajshahi,24.006808,89.244834,26.69,33,1014,2.64,1,0.0,5,169.12,194.85,175.4,9.88,34.16,803.63
2025-11-12,Panchagarh,Rangpur,26.320945,88.547114,25.14,55,1014,2.21,0,0.0,5,162.81,186.33,163.66,4.58,23.97,743.25
2025-11-12,Patuakhali,Barishal,22.008424,90.382683,26.37,48,1013,3.44,3,0.0,4,71.49,79.68,171.71,0.87,19.55,273.83
2025-11-12,Pirojpur,Barishal,22.50956,90.00725,26.62,43,1013,3.56,6,0.0,5,80.58,89.32,175.49,1.12,24.19,308.9
2025-11-12,Rajbari,Dhaka,23.739837,89.570413,26.75,34,1013,2.68,4,0.0,5,183.4,209.0,188.85,7.99,35.61,825.91
2025-11-12,Rajshahi,Rajshahi,24.628543,89.037686,26.2,37,1014,2.58,0,0.0,5,147.68,170.35,159.09,6.72,21.16,705.26
2025-11-12,Rangamati,Chattogram,22.650921,92.181433,28.15,48,1012,0.85,2,0.0,5,86.04,93.24,155.96,1.56,8.3,385.48
2025-11-12,Rangpur,Rangpur,25.637614,89.082638,25.59,47,1014,2.11,0,0.0,5,149.83,170.6,158.82,5.54,20.92,681.52
2025-11-12,Satkhira,Khulna,22.716651,89.074986,27.25,33,1013,3.64,4,0.0,5,181.15,204.48,206.86,10.04,53.2,804.35
2025-11-12,Shariatpur,Dhaka,23.213284,90.348125,27.34,41,1013,3.19,2,0.0,5,99.28,110.28,162.37,1.78,21.02,398.3
2025-11-12,Sherpur,Mymensingh,25.022837,90.014974,26.32,55,1013,2.61,0,0.0,5,164.25,185.16,143.23,3.66,14.33,732.26
2025-11-12,Sirajganj,Rajshahi,24.457224,89.705705,24.44,49,1014,2.81,0,0.0,5,162.51,183.31,164.79,5.57,23.34,697.23
2025-11-12,Sunamganj,Sylhet,25.067103,91.398582,28.26,57,1012,0.61,0,0.0,5,138.07,153.55,159.04,8.25,10.53,697.67
2025-11-12,Sylhet,Sylhet,24.89922,91.868527,26.95,60,1012,0.84,1,0.0,5,111.04,123.51,158.75,4.47,8.74,535.72
2025-11-12,Tangail,Dhaka,24.273851,89.937591,25.66,49,1013,2.93,2,0.0,5,163.76,184.1,162.04,5.08,22.44,707.44
2025-11-12,Thakurgaon,Rangpur,23.773143,90.359163,27.02,44,1013,3.09,4,0.0,5,123.02,137.03,159.81,2.97,20.36,516.46
