date,district,division,lat,lon,temp_c,humidity,pressure,wind_speed,clouds,rain,aqi,pm2_5,pm10,o3,no2,so2,co
2025-09-19,Bagerhat,Khulna,22.655478,89.794181,32.36,65,1006,2.47,57,0.0,2,11.28,15.35,57.64,0.6,0.86,149.52
2025-09-19,Bandarban,Chattogram,21.787476,92.412475,34.4,52,1005,1.76,28,0.0,1,1.45,4.46,40.69,0.33,0.04,98.76
2025-09-19,Barguna,Barishal,22.131336,90.117243,32.26,62,1006,3.39,44,0.0,1,3.14,7.36,44.97,0.06,0.15,97.35
2025-09-19,Barishal,Barishal,22.493403,90.354801,33.7,54,1006,2.08,61,0.0,1,4.13,8.06,47.3,0.11,0.24,107.23
2025-09-19,Bhola,Barishal,22.143569,90.790409,29.74,72,1006,2.82,74,0.0,1,2.03,7.04,38.91,0.03,0.08,92.36
2025-09-19,Bogura,Rajshahi,24.850066,89.372843,32.18,64,1006,1.08,91,0.0,3,49.69,55.45,15.49,21.15,14.6,527.2
2025-09-19,Brahmanbaria,Chattogram,23.9606,91.119089,33.06,66,1006,2.06,75,0.0,1,6.18,8.87,47.98,2.05,1.11,137.05
2025-09-19,Chandpur,Chattogram,23.224176,90.6531,31.3,68,1006,2.13,60,0.0,1,2.27,3.02,50.28,0.68,0.5,115.77
2025-09-19,Chapai Nawabganj,Rajshahi,24.599887,88.285047,32.5,61,1006,1.53,68,0.0,5,78.45,87.46,2.16,21.51,34.74,634.66
2025-09-19,Chattogram,Chattogram,22.333778,91.834435,32.93,66,1006,4.12,20,0.0,1,1.41,4.57,35.48,0.02,0.04,95.05
2025-09-19,Chuadanga,Khulna,23.643661,88.846448,32.13,66,1006,2.1,97,0.0,3,47.89,59.19,27.99,22.63,26.43,526.04
2025-09-19,Cox's Bazar,Chattogram,21.176647,92.003505,28.55,80,1006,4.35,28,0.0,1,1.44,4.8,34.69,0.03,0.04,96.25
2025-09-19,Cumilla,Chattogram,23.461061,91.180875,32.26,67,1006,0.85,56,0.0,1,3.61,5.55,48.22,1.07,0.64,120.99
2025-09-19,Dhaka,Dhaka,23.764386,90.389014,30.98,74,1006,1.54,75,0.0,2,10.65,13.19,40.55,4.81,3.33,173.21
2025-09-19,Dinajpur,Rangpur,25.626071,88.634623,32.04,64,1006,1.3,85,3.16,4,73.69,80.91,0.01,33.17,23.97,652.37
2025-09-19,Faridpur,Dhaka,23.604018,89.841554,32.09,63,1006,2.01,100,0.0,2,15.62,19.01,38.95,8.04,6.4,223.65
2025-09-19,Feni,Chattogram,23.01276,91.404923,31.58,70,1006,2.44,45,0.0,1,2.21,4.87,43.94,0.32,0.22,105.45
2025-09-19,Gaibandha,Rangpur,25.086001,89.869644,32.01,65,1006,1.66,95,0.0,3,35.55,40.92,16.5,15.23,4.61,471.29
2025-09-19,Gazipur,Dhaka,23.999756,90.417363,31.01,74,1006,1.54,75,0.0,2,10.01,12.77,44.01,4.63,2.73,171.83
2025-09-19,Gopalganj,Dhaka,23.004994,89.830318,32.88,61,1006,2.11,71,0.0,1,9.99,12.9,45.47,2.79,3.4,154.21
2025-09-19,Habiganj,Sylhet,24.374603,91.414027,32.78,62,1006,1.64,36,0.0,2,12.29,15.59,53.33,3.32,3.38,175.34
2025-09-19,Jamalpur,Mymensingh,24.925587,89.943668,31.49,67,1006,1.31,100,0.0,3,36.63,42.01,19.94,15.76,4.9,443.58
2025-09-19,Jashore,Khulna,23.166526,89.209442,32.17,65,1006,2.35,100,0.0,2,16.66,20.04,53.53,5.36,6.41,208.8
2025-09-19,Jhalokathi,Barishal,22.56239,90.174282,33.78,54,1006,2.03,57,0.0,1,5.18,9.54,48.39,0.15,0.32,112.64
2025-09-19,Jhenaidah,Khulna,23.544696,89.173194,31.67,69,1006,2.01,100,0.0,3,28.28,34.43,40.68,13.29,15.08,343.37
2025-09-19,Joypurhat,Rajshahi,25.111402,88.98842,32.51,64,1006,1.09,96,0.0,4,58.39,64.31,11.97,22.31,35.2,539.76
2025-09-19,Khagrachhari,Chattogram,23.1078,91.988996,34.14,54,1005,1.51,32,0.0,1,2.55,5.73,41.16,0.26,0.16,104.12
2025-09-19,Khulna,Khulna,22.937209,89.285274,32.46,65,1006,2.24,95,0.0,2,16.69,20.39,57.84,3.42,3.97,192.49
2025-09-19,Kishoreganj,Dhaka,24.433982,90.785723,33.13,59,1006,1.55,78,0.0,2,19.31,25.35,26.14,7.54,2.04,223.75
2025-09-19,Kurigram,Rangpur,25.813013,89.643052,30.28,70,1006,0.98,100,0.0,3,30.27,33.36,7.35,21.3,3.63,482.82
2025-09-19,Kushtia,Khulna,23.898795,89.129554,31.12,68,1006,0.88,99,0.0,3,49.2,61.08,25.87,24.79,27.07,551.07
2025-09-19,Lakshmipur,Chattogram,22.944537,90.827635,31.54,65,1006,2.24,60,0.0,1,1.97,4.01,47.03,0.23,0.19,103.03
2025-09-19,Lalmonirhat,Rangpur,25.916351,89.446139,31.45,67,1006,0.65,100,1.0,3,36.47,39.64,7.16,24.81,4.79,520.05
2025-09-19,Madaripur,Dhaka,23.167518,90.204727,32.63,63,1006,1.41,77,0.0,1,5.75,8.0,43.98,1.28,1.47,125.7
2025-09-19,Magura,Khulna,23.488077,89.420182,31.55,68,1006,1.83,100,0.0,2,17.94,21.57,47.11,9.47,9.49,250.11
2025-09-19,Manikganj,Dhaka,23.832984,89.966688,32.44,60,1006,2.1,93,0.0,2,18.13,22.09,37.79,10.06,7.21,253.4
2025-09-19,Meherpur,Khulna,23.781785,88.636937,32.17,63,1006,1.76,100,0.0,3,44.24,53.13,28.39,18.68,19.59,463.43
2025-09-19,Moulvibazar,Sylhet,24.488082,91.763018,32.22,68,1006,0.07,40,0.0,2,13.99,17.33,55.71,3.18,3.32,191.25
2025-09-19,Munshiganj,Dhaka,23.54838,90.534972,33.16,60,1006,1.88,82,0.0,1,6.17,7.85,45.18,2.39,1.77,139.9
2025-09-19,Mymensingh,Mymensingh,24.888931,90.384519,31.65,66,1006,1.78,96,0.0,3,27.47,32.71,21.3,11.72,2.84,364.72
2025-09-19,Naogaon,Rajshahi,24.807323,88.944545,32.69,63,1006,1.23,98,0.0,4,55.38,61.42,13.28,21.17,26.58,523.53
2025-09-19,Narail,Khulna,25.074884,90.391651,31.26,69,1006,1.9,94,0.0,3,28.65,34.1,17.21,12.53,2.77,413.32
2025-09-19,Narayanganj,Dhaka,23.623673,90.498807,31.01,58,1006,1.66,84,0.0,1,8.09,10.31,44.6,3.51,2.25,155.88
2025-09-19,Narsingdi,Dhaka,23.919715,90.715298,32.91,61,1006,1.41,88,0.0,1,7.16,9.63,47.82,2.98,1.5,149.99
2025-09-19,Natore,Rajshahi,24.413185,88.986668,31.92,66,1006,1.52,94,0.0,3,49.37,55.65,15.89,18.91,9.35,491.11
2025-09-19,Netrokona,Mymensingh,24.891567,90.712533,32.5,62,1006,1.74,68,0.0,2,19.36,24.56,20.67,9.02,2.43,292.62
2025-09-19,Nilphamari,Rangpur,25.933927,88.853459,31.57,66,1006,1.22,67,0.56,4,62.62,68.71,0.02,33.76,23.3,639.64
2025-09-19,Noakhali,Chattogram,22.25408,91.17144,28.88,76,1006,1.71,57,0.0,1,1.63,5.18,40.11,0.02,0.05,94.7
2025-09-19,Pabna,Rajshahi,24.006808,89.244834,31.18,66,1006,0.79,100,0.0,3,42.94,51.08,27.97,21.27,15.94,477.86
2025-09-19,Panchagarh,Rangpur,26.320945,88.547114,31.74,63,1006,1.23,23,0.0,4,59.76,65.59,0.09,22.5,5.87,740.24
2025-09-19,Patuakhali,Barishal,22.008424,90.382683,31.48,65,1006,2.96,61,0.0,1,2.77,7.25,42.95,0.05,0.12,95.69
2025-09-19,Pirojpur,Barishal,22.50956,90.00725,33.4,57,1006,2.11,48,0.0,1,5.18,9.54,48.39,0.15,0.32,112.64
2025-09-19,Rajbari,Dhaka,23.739837,89.570413,32.17,61,1006,1.25,100,0.0,2,20.44,24.88,43.85,11.87,10.36,289.58
2025-09-19,Rajshahi,Rajshahi,24.628543,89.037686,32.58,63,1006,1.26,96,0.0,4,52.78,59.13,15.52,21.5,15.0,523.86
2025-09-19,Rangamati,Chattogram,22.650921,92.181433,32.66,58,1006,1.02,22,0.0,1,3.32,7.57,41.37,1.19,0.73,113.58
2025-09-19,Rangpur,Rangpur,25.637614,89.082638,32.03,66,1006,0.43,97,0.37,4,57.59,63.43,0.08,33.12,23.06,578.82
2025-09-19,Satkhira,Khulna,22.716651,89.074986,32.64,64,1006,2.31,96,0.0,2,19.62,23.78,62.92,2.13,1.96,188.18
2025-09-19,Shariatpur,Dhaka,23.213284,90.348125,31.53,66,1006,1.56,74,0.0,1,6.23,7.77,41.23,1.84,2.06,132.06
2025-09-19,Sherpur,Mymensingh,25.022837,90.014974,31.48,67,1006,1.79,99,0.0,3,33.28,39.07,16.86,13.91,2.84,456.39
2025-09-19,Sirajganj,Rajshahi,24.457224,89.705705,29.64,71,1006,0.42,96,0.0,3,49.56,56.17,22.5,22.25,7.52,486.57
2025-09-19,Sunamganj,Sylhet,25.067103,91.398582,32.79,65,1006,0.8,92,0.0,3,25.0,29.91,14.43,23.34,17.72,418.17
2025-09-19,Sylhet,Sylhet,24.89922,91.868527,32.02,64,1005,1.51,66,0.0,2,11.6,14.4,31.01,10.1,2.0,230.93
2025-09-19,Tangail,Dhaka,24.273851,89.937591,31.17,66,1006,1.53,97,0.0,3,31.9,36.82,30.49,14.57,6.06,343.15
2025-09-19,Thakurgaon,Rangpur,23.773143,90.359163,31.02,74,1006,1.54,75,0.0,2,10.65,13.19,40.55,4.81,3.33,173.21
