date,district,division,lat,lon,temp_c,humidity,pressure,wind_speed,clouds,rain,aqi,pm2_5,pm10,o3,no2,so2,co
2025-09-29,Bagerhat,Khulna,22.655478,89.794181,33.66,60,1004,0.67,41,0.0,1,2.57,5.19,40.94,0.18,0.36,115.29
2025-09-29,Bandarban,Chattogram,21.787476,92.412475,35.08,50,1004,1.93,35,0.0,1,6.42,6.93,55.62,0.34,0.16,123.69
2025-09-29,Barguna,Barishal,22.131336,90.117243,32.79,62,1004,0.55,49,0.0,1,1.81,2.47,38.02,0.04,0.01,98.88
2025-09-29,Barishal,Barishal,22.493403,90.354801,33.31,58,1004,1.89,72,0.0,1,1.82,2.98,37.24,0.1,0.09,103.45
2025-09-29,Bhola,Barishal,22.143569,90.790409,29.94,71,1005,0.76,56,0.0,1,1.62,2.03,33.2,0.02,0.0,99.12
2025-09-29,Bogura,Rajshahi,24.850066,89.372843,33.61,54,1004,2.1,26,0.0,3,26.94,30.79,43.19,12.5,14.83,234.9
2025-09-29,Brahmanbaria,Chattogram,23.9606,91.119089,33.25,59,1004,1.33,15,0.0,2,10.25,12.58,42.61,2.72,2.12,177.39
2025-09-29,Chandpur,Chattogram,23.224176,90.6531,32.18,63,1004,0.44,15,0.0,1,2.01,3.05,37.98,0.83,0.68,112.2
2025-09-29,Chapai Nawabganj,Rajshahi,24.599887,88.285047,34.06,52,1005,1.05,46,0.0,3,45.79,52.48,72.1,6.53,18.25,254.95
2025-09-29,Chattogram,Chattogram,22.333778,91.834435,30.53,74,1004,4.23,55,0.0,2,9.41,10.07,66.94,1.35,0.89,129.79
2025-09-29,Chuadanga,Khulna,23.643661,88.846448,32.78,59,1005,0.96,19,0.0,3,37.68,50.17,43.14,20.41,31.56,388.8
2025-09-29,Cox's Bazar,Chattogram,21.176647,92.003505,29.0,81,1004,5.49,31,0.0,1,2.77,3.14,32.41,0.06,0.01,106.74
2025-09-29,Cumilla,Chattogram,23.461061,91.180875,32.44,65,1004,1.87,26,0.0,1,5.06,6.53,39.27,1.48,0.98,138.35
2025-09-29,Dhaka,Dhaka,23.764386,90.389014,34.03,52,1004,2.35,16,0.0,1,5.15,6.6,39.05,2.13,1.07,139.31
2025-09-29,Dinajpur,Rangpur,25.626071,88.634623,33.68,55,1005,0.81,24,0.0,4,61.71,69.04,73.15,11.81,26.59,281.15
2025-09-29,Faridpur,Dhaka,23.604018,89.841554,32.98,55,1004,1.94,14,0.0,2,10.68,13.09,44.35,3.51,3.45,164.56
2025-09-29,Feni,Chattogram,23.01276,91.404923,32.09,68,1004,2.69,58,0.0,1,5.15,6.12,42.16,1.31,0.63,133.04
2025-09-29,Gaibandha,Rangpur,25.086001,89.869644,33.63,55,1004,2.23,24,0.0,2,11.45,13.81,37.16,6.17,2.31,210.67
2025-09-29,Gazipur,Dhaka,23.999756,90.417363,33.19,55,1004,1.84,14,0.0,1,7.02,8.99,39.72,2.62,1.21,154.6
2025-09-29,Gopalganj,Dhaka,23.004994,89.830318,33.13,59,1004,1.85,21,0.0,1,3.54,5.01,44.58,0.61,1.55,115.07
2025-09-29,Habiganj,Sylhet,24.374603,91.414027,34.27,56,1004,0.6,11,0.0,2,12.21,14.69,34.5,10.79,5.72,219.37
2025-09-29,Jamalpur,Mymensingh,24.925587,89.943668,33.37,56,1004,2.18,6,0.0,2,13.34,15.82,35.55,6.45,2.52,213.64
2025-09-29,Jashore,Khulna,23.166526,89.209442,32.21,64,1005,1.22,54,0.0,2,10.42,13.68,59.27,2.32,6.51,145.72
2025-09-29,Jhalokathi,Barishal,22.56239,90.174282,33.74,57,1004,1.38,72,0.0,1,2.02,3.53,38.07,0.11,0.1,104.04
2025-09-29,Jhenaidah,Khulna,23.544696,89.173194,32.6,61,1005,1.14,43,0.0,3,25.32,32.69,58.03,10.32,18.25,258.25
2025-09-29,Joypurhat,Rajshahi,25.111402,88.98842,33.6,56,1004,1.57,59,0.0,4,52.09,59.54,30.79,27.7,47.55,316.33
2025-09-29,Khagrachhari,Chattogram,23.1078,91.988996,34.59,52,1003,1.76,55,0.0,2,10.75,11.91,50.98,2.65,1.51,170.26
2025-09-29,Khulna,Khulna,22.937209,89.285274,32.02,67,1005,1.09,35,0.0,1,7.04,10.05,53.09,1.3,3.68,132.71
2025-09-29,Kishoreganj,Dhaka,24.433982,90.785723,33.71,55,1004,1.85,11,0.0,1,6.9,10.05,31.42,5.37,2.44,194.8
2025-09-29,Kurigram,Rangpur,25.813013,89.643052,32.17,60,1004,1.54,29,0.0,2,23.27,26.27,44.05,7.18,3.39,232.26
2025-09-29,Kushtia,Khulna,23.898795,89.129554,33.19,57,1004,1.41,11,0.0,3,39.6,51.98,36.47,20.86,29.19,404.63
2025-09-29,Lakshmipur,Chattogram,22.944537,90.827635,32.81,62,1004,2.16,46,0.0,1,1.72,2.39,37.5,0.38,0.24,106.7
2025-09-29,Lalmonirhat,Rangpur,25.916351,89.446139,33.93,53,1004,0.87,26,0.0,3,27.81,31.13,38.95,9.27,4.68,239.7
2025-09-29,Madaripur,Dhaka,23.167518,90.204727,33.35,58,1004,1.57,19,0.0,1,1.73,2.67,38.62,0.43,0.36,108.84
2025-09-29,Magura,Khulna,23.488077,89.420182,32.51,60,1005,1.33,39,0.0,2,15.71,19.12,58.76,3.79,6.96,174.52
2025-09-29,Manikganj,Dhaka,23.832984,89.966688,32.77,54,1004,1.95,10,0.0,2,13.96,17.03,42.97,4.85,4.08,188.42
2025-09-29,Meherpur,Khulna,23.781785,88.636937,33.1,56,1005,1.5,33,0.0,3,42.96,53.91,59.39,15.99,26.22,376.68
2025-09-29,Moulvibazar,Sylhet,24.488082,91.763018,32.77,65,1004,0.46,8,0.0,2,13.92,16.61,36.55,11.35,4.78,238.91
2025-09-29,Munshiganj,Dhaka,23.54838,90.534972,34.33,51,1004,1.62,19,0.0,1,3.56,4.8,38.93,1.34,0.79,125.71
2025-09-29,Mymensingh,Mymensingh,24.888931,90.384519,33.18,58,1004,1.73,10,0.0,2,11.65,14.47,33.4,5.32,1.81,223.79
2025-09-29,Naogaon,Rajshahi,24.807323,88.944545,33.85,53,1004,1.93,26,0.0,3,49.57,56.47,39.99,21.73,35.22,311.79
2025-09-29,Narail,Khulna,25.074884,90.391651,33.59,56,1004,1.59,6,0.0,2,10.84,13.63,35.32,5.02,1.66,226.7
2025-09-29,Narayanganj,Dhaka,23.623673,90.498807,34.57,50,1004,2.01,19,0.0,1,5.29,6.89,39.32,1.98,1.0,140.14
2025-09-29,Narsingdi,Dhaka,23.919715,90.715298,33.31,56,1004,1.97,12,0.0,1,7.14,9.26,40.4,2.32,1.05,155.37
2025-09-29,Natore,Rajshahi,24.413185,88.986668,33.22,56,1004,1.42,18,0.0,3,44.51,50.33,58.42,9.74,10.48,302.67
2025-09-29,Netrokona,Mymensingh,24.891567,90.712533,33.86,55,1004,1.26,8,0.0,2,10.56,13.9,38.35,4.5,2.5,226.85
2025-09-29,Nilphamari,Rangpur,25.933927,88.853459,33.62,55,1004,0.08,18,0.0,3,46.66,52.2,62.54,11.68,23.68,261.61
2025-09-29,Noakhali,Chattogram,22.25408,91.17144,28.5,80,1005,2.46,72,0.0,1,1.83,2.25,36.85,0.09,0.03,97.54
2025-09-29,Pabna,Rajshahi,24.006808,89.244834,33.37,55,1004,1.68,12,0.0,3,31.69,39.03,44.88,12.67,15.05,299.27
2025-09-29,Panchagarh,Rangpur,26.320945,88.547114,33.2,55,1005,1.38,7,0.0,3,29.58,32.88,86.4,2.1,6.58,190.55
2025-09-29,Patuakhali,Barishal,22.008424,90.382683,31.09,68,1005,1.33,60,0.0,1,1.74,2.33,36.41,0.03,0.01,98.96
2025-09-29,Pirojpur,Barishal,22.50956,90.00725,33.74,58,1004,0.99,56,0.0,1,2.02,3.53,38.07,0.11,0.1,104.04
2025-09-29,Rajbari,Dhaka,23.739837,89.570413,33.73,53,1004,1.08,16,0.0,2,22.02,26.66,55.47,5.96,8.05,216.75
2025-09-29,Rajshahi,Rajshahi,24.628543,89.037686,33.68,54,1004,1.76,21,0.0,3,37.04,42.12,46.89,13.24,16.84,270.86
2025-09-29,Rangamati,Chattogram,22.650921,92.181433,33.13,58,1004,1.31,58,0.0,2,17.62,18.94,77.86,2.77,2.84,179.24
2025-09-29,Rangpur,Rangpur,25.637614,89.082638,33.54,56,1004,0.99,33,0.0,3,46.4,52.16,47.59,14.55,23.32,275.45
2025-09-29,Satkhira,Khulna,22.716651,89.074986,31.84,67,1005,0.45,44,0.0,1,4.52,7.07,51.44,0.37,1.22,119.69
2025-09-29,Shariatpur,Dhaka,23.213284,90.348125,32.33,61,1004,0.72,17,0.0,1,1.67,2.36,39.09,0.57,0.47,110.39
2025-09-29,Sherpur,Mymensingh,25.022837,90.014974,33.45,56,1004,2.29,10,0.0,2,10.07,12.54,32.08,5.49,1.23,218.61
2025-09-29,Sirajganj,Rajshahi,24.457224,89.705705,30.46,67,1005,1.42,18,0.0,2,17.79,20.52,36.07,7.82,3.96,209.65
2025-09-29,Sunamganj,Sylhet,25.067103,91.398582,34.15,57,1004,0.62,9,0.0,2,24.66,28.26,29.26,23.29,14.98,359.21
2025-09-29,Sylhet,Sylhet,24.89922,91.868527,33.35,59,1003,1.08,12,0.0,2,20.04,22.62,50.95,12.77,2.73,276.15
2025-09-29,Tangail,Dhaka,24.273851,89.937591,32.26,60,1004,1.87,23,0.0,2,16.06,18.91,35.88,6.29,3.33,209.2
2025-09-29,Thakurgaon,Rangpur,23.773143,90.359163,33.94,52,1004,2.29,16,0.0,1,5.15,6.6,39.05,2.13,1.07,139.31
