date,district,division,lat,lon,temp_c,humidity,pressure,wind_speed,clouds,rain,aqi,pm2_5,pm10,o3,no2,so2,co
2025-12-29,Bagerhat,Khulna,22.655478,89.794181,23.95,33,1015,2.61,0,0.0,5,264.53,281.07,168.33,5.08,26.38,911.18
2025-12-29,Bandarban,Chattogram,21.787476,92.412475,27.73,31,1013,1.22,1,0.0,5,80.49,85.0,131.58,1.08,4.54,342.13
2025-12-29,Barguna,Barishal,22.131336,90.117243,23.38,35,1015,2.76,0,0.0,5,149.0,157.03,154.88,0.97,6.57,579.96
2025-12-29,Barishal,Barishal,22.493403,90.354801,23.71,36,1015,2.67,0,0.0,5,172.42,181.73,143.51,1.21,9.27,615.68
2025-12-29,Bhola,Barishal,22.143569,90.790409,20.27,57,1015,2.75,0,0.0,5,117.71,123.98,137.23,0.65,2.48,526.83
2025-12-29,Bogura,Rajshahi,24.850066,89.372843,21.49,41,1015,1.5,0,0.0,5,257.36,282.13,116.73,9.05,12.69,1101.33
2025-12-29,Brahmanbaria,Chattogram,23.9606,91.119089,17.06,88,1015,2.57,40,0.0,5,201.91,216.08,131.97,3.45,8.6,770.53
2025-12-29,Chandpur,Chattogram,23.224176,90.6531,22.32,47,1015,2.34,0,0.0,5,208.7,221.37,126.65,2.35,8.94,711.81
2025-12-29,Chapai Nawabganj,Rajshahi,24.599887,88.285047,21.73,34,1016,3.07,0,0.0,5,209.44,232.8,121.05,11.84,17.67,984.77
2025-12-29,Chattogram,Chattogram,22.333778,91.834435,19.93,77,1014,3.6,40,0.0,5,130.41,136.92,130.15,1.27,6.92,541.15
2025-12-29,Chuadanga,Khulna,23.643661,88.846448,21.72,34,1016,3.15,0,0.0,5,327.55,377.24,126.17,36.24,44.74,1883.52
2025-12-29,Cox's Bazar,Chattogram,21.176647,92.003505,20.92,66,1014,4.95,5,0.0,5,82.81,87.69,132.96,0.58,3.05,355.94
2025-12-29,Cumilla,Chattogram,23.461061,91.180875,23.23,42,1015,2.79,0,0.0,5,190.67,203.09,130.66,2.44,7.41,720.75
2025-12-29,Dhaka,Dhaka,23.764386,90.389014,14.99,88,1015,2.06,75,0.0,5,235.85,251.82,126.44,4.18,12.51,839.72
2025-12-29,Dinajpur,Rangpur,25.626071,88.634623,20.63,43,1016,2.39,0,0.0,5,236.1,257.84,131.46,7.86,14.86,977.23
2025-12-29,Faridpur,Dhaka,23.604018,89.841554,21.61,42,1015,3.11,0,0.0,5,264.29,285.19,133.62,8.05,19.95,1011.93
2025-12-29,Feni,Chattogram,23.01276,91.404923,23.22,41,1014,2.34,0,0.0,5,165.24,174.92,131.92,1.65,5.63,675.65
2025-12-29,Gaibandha,Rangpur,25.086001,89.869644,21.98,46,1015,2.17,0,0.0,5,254.15,274.54,111.65,5.11,8.62,1023.97
2025-12-29,Gazipur,Dhaka,23.999756,90.417363,15.01,88,1015,2.06,75,0.0,5,231.68,247.5,123.88,3.97,9.23,834.44
2025-12-29,Gopalganj,Dhaka,23.004994,89.830318,23.02,37,1015,3.09,0,0.0,5,247.17,263.85,147.69,5.58,24.57,857.41
2025-12-29,Habiganj,Sylhet,24.374603,91.414027,23.49,42,1015,0.45,0,0.0,5,194.28,209.62,138.9,6.7,9.94,842.33
2025-12-29,Jamalpur,Mymensingh,24.925587,89.943668,21.92,47,1015,1.78,0,0.0,5,256.46,277.24,112.51,5.6,8.89,1033.93
2025-12-29,Jashore,Khulna,23.166526,89.209442,22.37,33,1016,3.34,0,0.0,5,316.21,346.53,168.15,19.52,44.85,1347.26
2025-12-29,Jhalokathi,Barishal,22.56239,90.174282,23.78,35,1015,2.69,0,0.0,5,190.88,201.43,143.88,1.4,11.63,649.79
2025-12-29,Jhenaidah,Khulna,23.544696,89.173194,21.98,36,1016,3.16,0,0.0,5,331.68,374.8,141.1,30.3,44.26,1711.83
2025-12-29,Joypurhat,Rajshahi,25.111402,88.98842,21.22,40,1016,1.93,0,0.0,5,251.03,276.76,122.97,10.27,15.37,1095.5
2025-12-29,Khagrachhari,Chattogram,23.1078,91.988996,25.51,34,1014,0.78,0,0.0,5,158.21,166.93,132.89,1.92,6.41,673.51
2025-12-29,Khulna,Khulna,22.937209,89.285274,22.78,33,1015,3.33,0,0.0,5,306.44,332.23,175.57,16.01,44.57,1231.66
2025-12-29,Kishoreganj,Dhaka,24.433982,90.785723,22.92,44,1015,1.4,0,0.0,5,228.23,247.28,109.12,3.09,5.33,877.86
2025-12-29,Kurigram,Rangpur,25.813013,89.643052,20.64,50,1015,0.46,0,0.0,5,258.29,277.31,116.09,5.48,8.21,1085.4
2025-12-29,Kushtia,Khulna,23.898795,89.129554,21.95,37,1016,3.03,0,0.0,5,305.64,347.86,124.29,27.64,35.66,1646.69
2025-12-29,Lakshmipur,Chattogram,22.944537,90.827635,23.02,43,1015,2.81,0,0.0,5,165.3,174.4,136.54,1.38,6.06,628.04
2025-12-29,Lalmonirhat,Rangpur,25.916351,89.446139,22.09,44,1015,1.08,0,0.0,5,259.12,278.63,117.12,6.05,9.55,1084.44
2025-12-29,Madaripur,Dhaka,23.167518,90.204727,23.05,39,1015,2.95,0,0.0,5,208.98,221.37,133.43,2.25,14.31,701.41
2025-12-29,Magura,Khulna,23.488077,89.420182,22.08,38,1016,3.22,0,0.0,5,304.06,331.44,158.91,14.44,36.08,1226.12
2025-12-29,Manikganj,Dhaka,23.832984,89.966688,21.3,46,1015,2.9,0,0.0,5,270.6,292.99,127.98,8.73,16.56,1074.57
2025-12-29,Meherpur,Khulna,23.781785,88.636937,21.64,34,1016,3.02,0,0.0,5,295.57,336.95,119.13,30.49,39.44,1640.72
2025-12-29,Moulvibazar,Sylhet,24.488082,91.763018,22.85,50,1014,0.53,0,0.0,5,188.31,203.21,140.17,7.51,8.74,849.21
2025-12-29,Munshiganj,Dhaka,23.54838,90.534972,23.25,40,1015,2.75,0,0.0,5,219.73,233.71,126.77,3.0,11.32,758.97
2025-12-29,Mymensingh,Mymensingh,24.888931,90.384519,22.56,49,1015,0.38,0,0.0,5,245.85,264.5,111.18,3.98,6.84,975.77
2025-12-29,Naogaon,Rajshahi,24.807323,88.944545,21.62,38,1016,2.32,0,0.0,5,246.75,272.37,125.81,10.94,15.57,1092.32
2025-12-29,Narail,Khulna,25.074884,90.391651,23.16,48,1015,0.96,0,0.0,5,246.07,264.3,110.62,3.69,6.65,987.64
2025-12-29,Narayanganj,Dhaka,23.623673,90.498807,15.01,40,1015,2.61,0,0.0,5,225.7,240.61,125.33,3.49,10.28,796.69
2025-12-29,Narsingdi,Dhaka,23.919715,90.715298,22.71,43,1015,2.19,0,0.0,5,218.98,233.41,123.0,3.02,7.61,774.67
2025-12-29,Natore,Rajshahi,24.413185,88.986668,21.71,37,1015,2.64,0,0.0,5,238.19,263.59,131.51,12.29,15.97,1085.94
2025-12-29,Netrokona,Mymensingh,24.891567,90.712533,22.74,45,1015,0.28,0,0.0,5,230.86,248.78,108.21,3.22,5.09,931.36
2025-12-29,Nilphamari,Rangpur,25.933927,88.853459,21.29,44,1015,1.83,0,0.0,5,248.56,269.99,126.4,7.31,14.52,1038.42
2025-12-29,Noakhali,Chattogram,22.25408,91.17144,18.21,73,1015,4.22,0,0.0,5,133.05,140.03,134.05,0.8,3.83,570.02
2025-12-29,Pabna,Rajshahi,24.006808,89.244834,21.93,37,1016,2.89,0,0.0,5,288.71,321.21,125.79,17.44,24.58,1371.28
2025-12-29,Panchagarh,Rangpur,26.320945,88.547114,20.81,49,1015,1.82,0,0.0,5,252.64,274.78,123.66,7.5,15.64,1097.2
2025-12-29,Patuakhali,Barishal,22.008424,90.382683,22.38,42,1015,2.36,0,0.0,5,138.57,146.01,149.0,0.86,5.21,562.24
2025-12-29,Pirojpur,Barishal,22.50956,90.00725,23.59,34,1015,2.84,0,0.0,5,190.88,201.43,143.88,1.4,11.63,649.79
2025-12-29,Rajbari,Dhaka,23.739837,89.570413,21.77,39,1016,2.7,0,0.0,5,300.86,329.51,145.78,14.44,30.42,1270.97
2025-12-29,Rajshahi,Rajshahi,24.628543,89.037686,21.8,37,1015,2.34,0,0.0,5,251.28,276.57,123.62,10.62,14.39,1107.62
2025-12-29,Rangamati,Chattogram,22.650921,92.181433,23.56,42,1014,0.64,0,0.0,5,140.13,147.64,131.53,2.54,6.92,592.15
2025-12-29,Rangpur,Rangpur,25.637614,89.082638,21.37,43,1015,1.57,0,0.0,5,248.03,269.39,123.88,7.4,13.43,1023.62
2025-12-29,Satkhira,Khulna,22.716651,89.074986,22.94,31,1015,3.57,0,0.0,5,302.46,326.09,182.68,18.17,56.1,1207.68
2025-12-29,Shariatpur,Dhaka,23.213284,90.348125,21.93,46,1015,2.52,0,0.0,5,218.8,232.27,129.77,2.67,15.8,730.75
2025-12-29,Sherpur,Mymensingh,25.022837,90.014974,22.3,48,1015,1.4,0,0.0,5,253.01,271.68,112.05,3.89,7.5,1002.44
2025-12-29,Sirajganj,Rajshahi,24.457224,89.705705,18.07,59,1016,1.54,0,0.0,5,268.13,291.58,114.57,7.89,10.72,1118.55
2025-12-29,Sunamganj,Sylhet,25.067103,91.398582,23.76,44,1014,1.1,0,0.0,5,222.79,240.46,111.58,11.01,5.79,1093.13
2025-12-29,Sylhet,Sylhet,24.89922,91.868527,22.98,46,1014,0.8,0,0.0,5,167.23,179.74,128.16,6.67,5.24,784.54
2025-12-29,Tangail,Dhaka,24.273851,89.937591,20.35,53,1015,2.31,0,0.0,5,264.25,286.09,118.82,7.31,11.81,1060.76
2025-12-29,Thakurgaon,Rangpur,23.773143,90.359163,15.02,88,1015,2.06,75,0.0,5,235.85,251.82,126.44,4.18,12.51,839.72
