date,district,division,lat,lon,temp_c,humidity,pressure,wind_speed,clouds,rain,aqi,pm2_5,pm10,o3,no2,so2,co
2025-09-25,Bagerhat,Khulna,22.655478,89.794181,33.41,59,1002,2.52,81,0.0,1,4.98,6.41,58.59,0.14,0.09,204.64
2025-09-25,Bandarban,Chattogram,21.787476,92.412475,34.1,54,1002,0.75,88,0.0,1,4.09,5.22,48.31,0.15,0.06,143.17
2025-09-25,Barguna,Barishal,22.131336,90.117243,31.65,68,1002,4.18,91,0.0,1,5.03,6.15,55.55,0.14,0.05,187.39
2025-09-25,Barishal,Barishal,22.493403,90.354801,32.34,62,1002,3.74,94,0.0,1,4.41,5.63,54.72,0.13,0.04,189.28
2025-09-25,Bhola,Barishal,22.143569,90.790409,29.32,78,1002,4.72,91,0.0,1,4.1,5.52,49.06,0.15,0.05,170.66
2025-09-25,Bogura,Rajshahi,24.850066,89.372843,33.05,60,1002,1.07,82,0.0,2,20.31,23.28,64.23,4.95,6.59,256.06
2025-09-25,Brahmanbaria,Chattogram,23.9606,91.119089,32.82,65,1002,0.6,71,0.0,1,7.52,9.28,45.27,2.43,1.03,223.88
2025-09-25,Chandpur,Chattogram,23.224176,90.6531,31.75,67,1002,2.48,64,0.0,1,3.85,4.56,48.16,1.16,0.48,212.31
2025-09-25,Chapai Nawabganj,Rajshahi,24.599887,88.285047,33.63,56,1002,2.59,32,0.0,2,21.56,24.59,82.26,2.45,7.3,244.45
2025-09-25,Chattogram,Chattogram,22.333778,91.834435,29.62,76,1002,2.86,66,0.0,1,4.65,5.75,45.39,0.24,0.06,157.9
2025-09-25,Chuadanga,Khulna,23.643661,88.846448,29.73,76,1003,2.2,76,0.0,2,24.13,32.45,66.49,9.83,19.16,430.45
2025-09-25,Cox's Bazar,Chattogram,21.176647,92.003505,28.74,79,1002,6.32,97,0.0,1,4.45,5.8,50.74,0.16,0.06,152.38
2025-09-25,Cumilla,Chattogram,23.461061,91.180875,32.72,66,1002,1.22,59,0.0,1,6.15,7.17,53.77,1.44,0.64,211.59
2025-09-25,Dhaka,Dhaka,23.764386,90.389014,33.45,56,1002,1.68,71,0.0,1,4.15,5.42,44.29,2.42,0.74,237.6
2025-09-25,Dinajpur,Rangpur,25.626071,88.634623,33.17,59,1002,2.72,9,0.0,3,37.2,41.15,90.78,6.35,12.99,269.64
2025-09-25,Faridpur,Dhaka,23.604018,89.841554,30.88,65,1002,1.2,98,0.0,1,4.58,5.97,47.76,2.64,1.51,247.05
2025-09-25,Feni,Chattogram,23.01276,91.404923,31.89,68,1002,3.34,69,0.0,2,6.37,7.09,63.01,0.68,0.49,193.9
2025-09-25,Gaibandha,Rangpur,25.086001,89.869644,33.07,62,1002,2.42,88,0.0,2,16.88,19.66,35.89,9.0,2.46,291.77
2025-09-25,Gazipur,Dhaka,23.999756,90.417363,32.43,62,1002,1.07,71,0.0,1,4.93,6.63,40.72,3.11,0.86,244.0
2025-09-25,Gopalganj,Dhaka,23.004994,89.830318,32.95,62,1002,2.57,94,0.0,1,3.75,4.68,53.44,0.88,0.96,210.99
2025-09-25,Habiganj,Sylhet,24.374603,91.414027,33.48,63,1002,0.95,49,0.0,1,8.55,11.23,43.6,4.83,3.7,241.28
2025-09-25,Jamalpur,Mymensingh,24.925587,89.943668,32.72,62,1002,1.87,90,0.0,2,13.58,16.04,39.01,7.5,2.01,278.7
2025-09-25,Jashore,Khulna,23.166526,89.209442,30.49,73,1002,2.43,87,0.0,2,6.0,7.69,61.33,2.07,4.04,234.4
2025-09-25,Jhalokathi,Barishal,22.56239,90.174282,32.85,60,1002,3.39,98,0.0,1,4.75,6.0,56.1,0.13,0.05,192.45
2025-09-25,Jhenaidah,Khulna,23.544696,89.173194,30.69,72,1002,1.98,73,0.0,2,13.71,18.2,63.24,5.84,11.1,318.93
2025-09-25,Joypurhat,Rajshahi,25.111402,88.98842,33.07,60,1002,2.0,78,0.0,3,45.02,50.3,101.38,6.34,23.34,292.74
2025-09-25,Khagrachhari,Chattogram,23.1078,91.988996,34.06,56,1002,0.48,97,0.0,2,8.07,8.77,71.17,0.84,0.87,191.89
2025-09-25,Khulna,Khulna,22.937209,89.285274,32.3,66,1002,2.19,90,0.0,2,5.33,6.78,61.49,1.11,2.09,224.58
2025-09-25,Kishoreganj,Dhaka,24.433982,90.785723,33.97,59,1002,0.82,57,0.0,2,11.04,14.54,54.73,4.55,2.97,275.04
2025-09-25,Kurigram,Rangpur,25.813013,89.643052,31.67,68,1002,2.34,20,0.0,2,20.27,22.76,48.68,6.6,1.26,281.85
2025-09-25,Kushtia,Khulna,23.898795,89.129554,31.62,66,1002,1.69,86,0.0,2,22.48,30.3,60.45,9.34,16.45,426.84
2025-09-25,Lakshmipur,Chattogram,22.944537,90.827635,31.27,67,1002,3.93,97,0.0,1,4.03,4.92,52.74,0.43,0.17,193.83
2025-09-25,Lalmonirhat,Rangpur,25.916351,89.446139,33.46,59,1002,3.18,11,0.0,2,20.74,23.36,48.86,5.61,1.1,284.76
2025-09-25,Madaripur,Dhaka,23.167518,90.204727,32.51,65,1002,3.02,99,0.0,1,3.53,4.34,50.62,0.71,0.27,206.25
2025-09-25,Magura,Khulna,23.488077,89.420182,31.6,66,1002,1.95,87,0.0,1,5.03,6.45,55.14,2.52,3.27,240.63
2025-09-25,Manikganj,Dhaka,23.832984,89.966688,31.11,62,1002,1.29,75,0.0,1,5.26,6.99,45.92,3.34,1.57,262.36
2025-09-25,Meherpur,Khulna,23.781785,88.636937,30.26,73,1003,2.53,64,0.0,2,24.54,31.64,66.85,9.69,16.88,419.25
2025-09-25,Moulvibazar,Sylhet,24.488082,91.763018,32.35,69,1002,1.0,66,0.0,1,7.46,10.46,42.5,4.56,3.07,238.68
2025-09-25,Munshiganj,Dhaka,23.54838,90.534972,33.35,58,1002,2.15,70,0.0,1,3.98,4.99,45.71,1.76,0.57,223.03
2025-09-25,Mymensingh,Mymensingh,24.888931,90.384519,33.14,62,1002,1.46,49,0.0,2,13.92,16.96,36.29,9.51,3.8,297.03
2025-09-25,Naogaon,Rajshahi,24.807323,88.944545,33.22,59,1002,2.24,75,0.0,3,34.48,38.87,90.89,4.93,16.46,271.19
2025-09-25,Narail,Khulna,25.074884,90.391651,33.12,62,1002,1.8,54,0.0,2,17.0,20.39,31.83,11.91,4.88,313.28
2025-09-25,Narayanganj,Dhaka,23.623673,90.498807,33.67,56,1002,1.95,71,0.0,1,4.45,5.81,43.22,2.43,0.72,233.51
2025-09-25,Narsingdi,Dhaka,23.919715,90.715298,32.83,61,1002,0.67,79,0.0,1,5.21,7.02,39.13,3.08,0.8,237.96
2025-09-25,Natore,Rajshahi,24.413185,88.986668,32.73,61,1002,1.5,69,0.0,2,13.39,16.02,69.87,2.11,2.69,228.04
2025-09-25,Netrokona,Mymensingh,24.891567,90.712533,34.0,58,1002,1.01,29,0.0,2,14.22,18.23,42.78,11.01,7.01,303.42
2025-09-25,Nilphamari,Rangpur,25.933927,88.853459,33.16,59,1003,2.87,9,0.0,3,27.45,30.39,80.64,5.04,9.37,266.53
2025-09-25,Noakhali,Chattogram,22.25408,91.17144,28.52,81,1002,5.07,67,0.0,1,4.17,5.48,47.47,0.14,0.04,169.19
2025-09-25,Pabna,Rajshahi,24.006808,89.244834,32.34,62,1002,1.52,84,0.0,2,13.27,17.33,56.74,5.43,7.01,312.41
2025-09-25,Panchagarh,Rangpur,26.320945,88.547114,33.46,56,1003,2.53,2,0.0,3,33.0,36.46,86.83,2.37,3.17,299.72
2025-09-25,Patuakhali,Barishal,22.008424,90.382683,30.09,76,1002,4.37,87,0.0,1,4.72,5.94,53.38,0.14,0.05,181.81
2025-09-25,Pirojpur,Barishal,22.50956,90.00725,33.2,59,1002,3.17,93,0.0,1,4.75,6.0,56.1,0.13,0.05,192.45
2025-09-25,Rajbari,Dhaka,23.739837,89.570413,31.62,59,1002,1.93,91,0.0,1,6.04,7.86,52.55,3.11,3.0,257.79
2025-09-25,Rajshahi,Rajshahi,24.628543,89.037686,33.1,60,1002,1.65,71,0.0,2,19.62,22.65,71.2,3.82,6.9,247.68
2025-09-25,Rangamati,Chattogram,22.650921,92.181433,30.31,72,1002,1.26,84,0.0,1,5.04,5.72,48.67,0.57,0.1,180.65
2025-09-25,Rangpur,Rangpur,25.637614,89.082638,33.24,60,1002,2.64,28,0.0,3,27.45,30.47,72.89,6.34,9.19,268.18
2025-09-25,Satkhira,Khulna,22.716651,89.074986,31.46,70,1002,2.89,94,0.0,2,4.16,5.08,63.59,0.16,0.14,219.96
2025-09-25,Shariatpur,Dhaka,23.213284,90.348125,31.44,69,1002,2.75,88,0.0,1,3.17,3.77,48.25,0.99,0.38,212.81
2025-09-25,Sherpur,Mymensingh,25.022837,90.014974,32.95,63,1002,2.3,88,0.0,2,17.59,20.54,29.35,10.75,2.81,311.11
2025-09-25,Sirajganj,Rajshahi,24.457224,89.705705,29.77,72,1002,0.61,95,0.0,1,7.86,9.71,50.02,4.17,1.26,245.8
2025-09-25,Sunamganj,Sylhet,25.067103,91.398582,33.93,61,1002,0.94,38,0.0,2,12.8,16.01,44.26,16.21,11.32,294.06
2025-09-25,Sylhet,Sylhet,24.89922,91.868527,33.01,63,1001,1.44,37,0.0,1,8.53,10.6,56.74,4.67,1.18,213.08
2025-09-25,Tangail,Dhaka,24.273851,89.937591,31.22,67,1002,0.57,97,0.0,1,6.41,8.2,45.47,4.11,1.27,255.81
2025-09-25,Thakurgaon,Rangpur,23.773143,90.359163,33.37,56,1002,1.63,69,0.0,1,4.15,5.42,44.29,2.42,0.74,237.6
