date,district,division,lat,lon,temp_c,humidity,pressure,wind_speed,clouds,rain,aqi,pm2_5,pm10,o3,no2,so2,co
2025-12-22,Bagerhat,Khulna,22.655478,89.794181,25.96,39,1014,2.07,46,0.0,5,157.63,167.13,122.32,2.15,4.76,596.57
2025-12-22,Bandarban,Chattogram,21.787476,92.412475,28.5,34,1013,1.2,2,0.0,2,24.65,27.3,94.44,0.84,2.39,196.14
2025-12-22,Barguna,Barishal,22.131336,90.117243,25.19,43,1014,2.06,20,0.0,5,92.61,100.28,114.74,0.77,3.73,372.03
2025-12-22,Barishal,Barishal,22.493403,90.354801,25.86,39,1014,1.91,38,0.0,5,101.66,109.44,109.0,0.96,3.15,410.97
2025-12-22,Bhola,Barishal,22.143569,90.790409,21.91,61,1015,1.58,24,0.0,5,80.0,88.05,109.22,0.81,4.76,339.81
2025-12-22,Bogura,Rajshahi,24.850066,89.372843,24.43,44,1015,2.81,10,0.0,5,323.19,345.58,138.34,7.16,9.78,1225.68
2025-12-22,Brahmanbaria,Chattogram,23.9606,91.119089,22.06,73,1014,1.54,40,0.0,5,89.84,99.9,121.43,3.75,6.4,456.34
2025-12-22,Chandpur,Chattogram,23.224176,90.6531,24.3,49,1014,1.37,23,0.0,5,82.44,90.24,109.3,1.91,4.87,388.43
2025-12-22,Chapai Nawabganj,Rajshahi,24.599887,88.285047,23.72,42,1016,2.92,42,0.0,5,351.11,379.01,134.26,11.4,16.86,1377.58
2025-12-22,Chattogram,Chattogram,22.333778,91.834435,23.26,58,1014,2.58,14,0.0,3,38.32,42.35,102.54,1.2,2.76,267.68
2025-12-22,Chuadanga,Khulna,23.643661,88.846448,24.01,43,1015,2.77,48,0.0,5,385.25,428.02,142.82,35.5,52.1,1750.99
2025-12-22,Cox's Bazar,Chattogram,21.176647,92.003505,22.6,66,1014,4.44,5,0.0,2,22.07,24.72,96.68,0.38,2.04,164.44
2025-12-22,Cumilla,Chattogram,23.461061,91.180875,25.55,47,1014,1.6,37,0.0,5,77.66,85.7,119.17,2.52,5.2,397.06
2025-12-22,Dhaka,Dhaka,23.764386,90.389014,23.98,64,1014,2.06,56,0.0,5,148.12,158.13,117.79,2.83,3.75,594.61
2025-12-22,Dinajpur,Rangpur,25.626071,88.634623,23.72,43,1015,2.77,16,0.0,5,282.42,304.71,129.86,8.26,11.03,1166.22
2025-12-22,Faridpur,Dhaka,23.604018,89.841554,23.96,48,1015,2.68,44,0.0,5,210.05,223.14,127.06,4.03,5.78,786.29
2025-12-22,Feni,Chattogram,23.01276,91.404923,25.71,48,1014,1.19,11,0.0,4,63.39,69.8,115.1,1.61,3.41,356.19
2025-12-22,Gaibandha,Rangpur,25.086001,89.869644,24.65,45,1015,2.33,29,0.0,5,280.21,296.91,130.24,3.56,4.07,1046.4
2025-12-22,Gazipur,Dhaka,23.999756,90.417363,24.01,64,1014,2.06,30,0.0,5,130.74,141.15,116.17,3.04,4.12,552.81
2025-12-22,Gopalganj,Dhaka,23.004994,89.830318,25.21,43,1014,2.58,42,0.0,5,160.42,170.48,118.17,2.64,4.81,618.35
2025-12-22,Habiganj,Sylhet,24.374603,91.414027,25.96,46,1014,0.86,19,0.0,5,80.13,92.56,118.65,6.5,7.04,498.95
2025-12-22,Jamalpur,Mymensingh,24.925587,89.943668,24.47,46,1015,2.25,22,0.0,5,277.05,293.38,129.34,3.74,4.26,1021.82
2025-12-22,Jashore,Khulna,23.166526,89.209442,24.48,44,1015,2.62,52,0.0,5,248.91,268.82,138.39,13.06,22.19,991.27
2025-12-22,Jhalokathi,Barishal,22.56239,90.174282,25.91,39,1014,1.81,30,0.0,5,109.62,117.4,108.85,0.93,2.56,433.44
2025-12-22,Jhenaidah,Khulna,23.544696,89.173194,24.31,44,1015,2.8,35,0.0,5,328.27,361.05,138.33,26.07,39.91,1410.06
2025-12-22,Joypurhat,Rajshahi,25.111402,88.98842,24.06,44,1015,2.86,22,0.0,5,320.23,347.53,145.2,9.47,14.71,1329.42
2025-12-22,Khagrachhari,Chattogram,23.1078,91.988996,27.21,37,1014,0.19,5,0.0,4,50.71,56.4,105.85,1.53,2.08,340.28
2025-12-22,Khulna,Khulna,22.937209,89.285274,24.77,43,1015,2.72,36,0.0,5,226.29,243.13,136.37,10.25,18.11,892.09
2025-12-22,Kishoreganj,Dhaka,24.433982,90.785723,25.68,44,1014,0.79,15,0.0,5,129.64,142.93,114.38,2.62,3.27,558.39
2025-12-22,Kurigram,Rangpur,25.813013,89.643052,23.08,45,1015,2.13,10,0.0,5,272.76,290.47,131.31,4.91,4.08,1132.3
2025-12-22,Kushtia,Khulna,23.898795,89.129554,24.25,43,1015,2.88,38,0.0,5,371.79,408.36,143.71,25.37,36.66,1601.42
2025-12-22,Lakshmipur,Chattogram,22.944537,90.827635,25.28,46,1014,1.7,21,0.0,5,82.15,89.58,111.9,1.39,4.13,378.54
2025-12-22,Lalmonirhat,Rangpur,25.916351,89.446139,24.42,40,1015,1.95,9,0.0,5,275.94,294.13,131.19,5.4,4.78,1149.83
2025-12-22,Madaripur,Dhaka,23.167518,90.204727,25.37,41,1014,2.48,25,0.0,5,116.31,124.46,107.85,1.7,3.22,480.71
2025-12-22,Magura,Khulna,23.488077,89.420182,24.41,44,1015,2.66,43,0.0,5,258.08,274.83,141.3,5.74,10.82,940.49
2025-12-22,Manikganj,Dhaka,23.832984,89.966688,23.56,51,1015,2.24,41,0.0,5,229.23,243.48,130.5,4.47,5.91,848.44
2025-12-22,Meherpur,Khulna,23.781785,88.636937,23.92,43,1015,2.66,50,0.0,5,384.41,422.89,142.43,29.09,41.81,1686.5
2025-12-22,Moulvibazar,Sylhet,24.488082,91.763018,25.29,50,1014,0.83,11,0.0,4,72.94,85.04,114.88,6.28,5.46,484.27
2025-12-22,Munshiganj,Dhaka,23.54838,90.534972,25.81,39,1014,1.81,39,0.0,5,111.17,120.02,111.24,2.33,4.16,481.38
2025-12-22,Mymensingh,Mymensingh,24.888931,90.384519,25.12,49,1015,0.64,20,0.0,5,223.04,237.57,122.0,2.96,3.01,858.75
2025-12-22,Naogaon,Rajshahi,24.807323,88.944545,24.11,43,1015,2.88,12,0.0,5,329.27,356.88,144.18,11.23,15.96,1349.94
2025-12-22,Narail,Khulna,25.074884,90.391651,25.51,48,1015,1.11,13,0.0,5,230.55,245.46,122.08,2.88,2.95,894.66
2025-12-22,Narayanganj,Dhaka,23.623673,90.498807,24.01,39,1014,1.79,43,0.0,5,120.95,130.58,113.7,2.68,4.14,517.09
2025-12-22,Narsingdi,Dhaka,23.919715,90.715298,25.64,43,1014,1.36,23,0.0,5,99.47,109.43,109.79,2.86,4.36,465.38
2025-12-22,Natore,Rajshahi,24.413185,88.986668,24.14,43,1015,2.75,21,0.0,5,347.35,375.6,142.12,14.76,18.46,1391.03
2025-12-22,Netrokona,Mymensingh,24.891567,90.712533,25.19,46,1014,0.4,21,0.0,5,158.12,172.49,113.44,2.78,2.94,674.65
2025-12-22,Nilphamari,Rangpur,25.933927,88.853459,24.08,42,1015,2.18,5,0.0,5,268.76,290.53,128.6,7.48,10.41,1141.29
2025-12-22,Noakhali,Chattogram,22.25408,91.17144,20.17,76,1015,2.95,35,0.0,4,73.4,80.59,108.98,0.91,3.73,345.89
2025-12-22,Pabna,Rajshahi,24.006808,89.244834,24.31,44,1015,2.75,32,0.0,5,333.5,359.73,137.42,13.54,19.49,1299.36
2025-12-22,Panchagarh,Rangpur,26.320945,88.547114,23.55,44,1015,2.17,11,0.0,5,251.93,274.01,116.53,8.4,11.48,1117.67
2025-12-22,Patuakhali,Barishal,22.008424,90.382683,23.37,54,1014,2.43,16,0.0,5,88.41,96.2,112.9,0.78,4.07,361.29
2025-12-22,Pirojpur,Barishal,22.50956,90.00725,25.59,41,1014,2.0,24,0.0,5,109.62,117.4,108.85,0.93,2.56,433.44
2025-12-22,Rajbari,Dhaka,23.739837,89.570413,24.14,46,1015,2.27,40,0.0,5,279.6,298.05,137.42,6.17,10.65,1014.96
2025-12-22,Rajshahi,Rajshahi,24.628543,89.037686,24.29,43,1015,2.76,13,0.0,5,331.85,356.91,139.91,10.45,13.88,1293.42
2025-12-22,Rangamati,Chattogram,22.650921,92.181433,25.17,43,1014,0.34,5,0.0,3,39.54,44.06,102.63,2.69,2.81,297.58
2025-12-22,Rangpur,Rangpur,25.637614,89.082638,24.26,42,1015,2.37,27,0.0,5,277.65,298.46,129.11,7.16,9.01,1146.13
2025-12-22,Satkhira,Khulna,22.716651,89.074986,24.69,42,1015,2.84,56,0.0,5,229.95,247.19,138.2,12.14,21.92,923.08
2025-12-22,Shariatpur,Dhaka,23.213284,90.348125,23.89,48,1015,1.97,22,0.0,5,120.32,128.66,108.25,2.03,3.49,503.02
2025-12-22,Sherpur,Mymensingh,25.022837,90.014974,24.78,47,1015,1.74,29,0.0,5,259.64,274.55,126.66,2.89,3.03,975.79
2025-12-22,Sirajganj,Rajshahi,24.457224,89.705705,20.76,61,1015,2.34,14,0.0,5,294.21,311.44,129.5,4.85,6.2,1043.81
2025-12-22,Sunamganj,Sylhet,25.067103,91.398582,26.14,37,1014,0.86,5,0.0,5,112.08,129.28,117.62,9.95,4.55,775.3
2025-12-22,Sylhet,Sylhet,24.89922,91.868527,25.23,46,1014,1.0,6,0.0,4,59.03,68.37,106.97,5.0,3.3,420.34
2025-12-22,Tangail,Dhaka,24.273851,89.937591,22.74,55,1015,2.12,28,0.0,5,256.89,272.05,128.53,4.23,5.06,931.23
2025-12-22,Thakurgaon,Rangpur,23.773143,90.359163,24.02,64,1014,2.06,57,0.0,5,148.12,158.13,117.79,2.83,3.75,594.61
