date,district,division,lat,lon,temp_c,humidity,pressure,wind_speed,clouds,rain,aqi,pm2_5,pm10,o3,no2,so2,co
2026-07-17,Bagerhat,Khulna,22.655478,89.794181,31.11,71,1001,6.97,96,0.0,2,19.48,28.06,74.0,0.52,0.3,157.84
2026-07-17,Bandarban,Chattogram,21.787476,92.412475,27.2,93,1006,2.37,100,0.0,2,9.17,13.95,66.02,0.16,0.14,98.65
2026-07-17,Barguna,Barishal,22.131336,90.117243,30.45,71,1002,8.32,100,0.0,2,15.23,24.23,70.32,0.5,0.34,132.41
2026-07-17,Barishal,Barishal,22.493403,90.354801,31.31,66,1002,8.65,100,0.0,2,15.6,22.77,71.88,0.4,0.24,134.13
2026-07-17,Bhola,Barishal,22.143569,90.790409,28.39,83,1003,10.76,100,0.11,2,16.07,22.64,73.31,0.31,0.21,126.6
2026-07-17,Bogura,Rajshahi,24.850066,89.372843,32.27,67,1000,6.57,97,0.12,3,40.81,43.32,74.94,6.48,5.36,389.51
2026-07-17,Brahmanbaria,Chattogram,23.9606,91.119089,29.93,76,1002,8.53,100,0.0,2,15.21,16.67,71.46,0.69,0.33,145.37
2026-07-17,Chandpur,Chattogram,23.224176,90.6531,30.27,73,1002,9.36,100,0.0,2,15.04,17.09,69.81,0.49,0.25,140.14
2026-07-17,Chapai Nawabganj,Rajshahi,24.599887,88.285047,34.13,57,999,4.99,87,0.0,5,95.44,102.46,155.22,4.81,14.18,457.33
2026-07-17,Chattogram,Chattogram,22.333778,91.834435,28.6,78,1004,8.71,100,0.0,2,14.53,20.04,71.46,0.17,0.18,111.6
2026-07-17,Chuadanga,Khulna,23.643661,88.846448,32.13,70,999,5.98,99,0.0,5,87.7,95.37,95.63,15.77,20.04,707.37
2026-07-17,Cox's Bazar,Chattogram,21.176647,92.003505,28.39,83,1005,8.49,100,0.0,2,11.38,19.45,65.64,0.14,0.2,98.18
2026-07-17,Cumilla,Chattogram,23.461061,91.180875,29.75,74,1003,8.9,100,0.0,2,15.22,17.7,72.79,0.53,0.24,139.01
2026-07-17,Dhaka,Dhaka,23.764386,90.389014,31.8,66,1001,8.52,99,0.0,2,18.64,20.58,69.14,1.08,0.55,171.39
2026-07-17,Dinajpur,Rangpur,25.626071,88.634623,33.11,62,1000,4.97,100,0.0,3,35.67,39.3,87.61,5.21,8.33,254.3
2026-07-17,Faridpur,Dhaka,23.604018,89.841554,31.68,70,1000,7.72,99,0.0,3,26.2,28.73,76.93,1.66,1.89,221.23
2026-07-17,Feni,Chattogram,23.01276,91.404923,29.17,75,1003,8.6,100,0.0,2,14.86,18.86,74.11,0.33,0.16,125.68
2026-07-17,Gaibandha,Rangpur,25.086001,89.869644,31.38,70,1001,7.16,100,0.17,2,23.48,24.88,76.75,2.79,0.95,237.08
2026-07-17,Gazipur,Dhaka,23.999756,90.417363,31.49,69,1001,8.54,100,0.0,2,17.85,19.22,67.7,1.24,0.58,170.69
2026-07-17,Gopalganj,Dhaka,23.004994,89.830318,31.19,70,1001,7.24,95,0.0,2,20.11,25.19,73.29,0.8,0.78,169.8
2026-07-17,Habiganj,Sylhet,24.374603,91.414027,29.41,81,1003,6.58,89,0.0,2,13.1,14.33,71.96,1.03,0.96,138.88
2026-07-17,Jamalpur,Mymensingh,24.925587,89.943668,31.32,71,1001,7.03,98,0.0,3,26.68,28.19,75.16,3.05,1.26,254.25
2026-07-17,Jashore,Khulna,23.166526,89.209442,31.49,73,1000,7.13,94,0.0,3,32.73,37.75,84.98,2.1,2.75,256.4
2026-07-17,Jhalokathi,Barishal,22.56239,90.174282,31.6,65,1001,8.28,100,0.32,2,15.83,23.85,71.26,0.46,0.28,136.37
2026-07-17,Jhenaidah,Khulna,23.544696,89.173194,31.58,73,1000,6.95,89,0.49,4,58.49,63.32,93.63,7.57,10.08,459.34
2026-07-17,Joypurhat,Rajshahi,25.111402,88.98842,32.61,65,1000,6.15,100,0.0,3,40.93,45.28,66.95,7.78,8.63,425.48
2026-07-17,Khagrachhari,Chattogram,23.1078,91.988996,27.03,93,1004,3.32,100,0.0,2,14.25,17.08,72.45,0.26,0.17,115.33
2026-07-17,Khulna,Khulna,22.937209,89.285274,31.54,71,1000,7.26,98,0.4,3,29.31,35.64,82.0,1.44,1.58,225.19
2026-07-17,Kishoreganj,Dhaka,24.433982,90.785723,30.72,73,1002,7.57,81,0.0,2,16.9,18.52,64.91,2.21,0.77,180.3
2026-07-17,Kurigram,Rangpur,25.813013,89.643052,31.19,70,1001,7.81,100,0.0,2,22.15,23.98,85.74,2.56,1.23,211.55
2026-07-17,Kushtia,Khulna,23.898795,89.129554,32.22,69,1000,6.68,98,0.0,5,84.22,91.82,94.42,15.22,19.57,685.17
2026-07-17,Lakshmipur,Chattogram,22.944537,90.827635,29.78,74,1002,8.88,100,0.0,2,14.86,19.43,72.83,0.33,0.16,132.11
2026-07-17,Lalmonirhat,Rangpur,25.916351,89.446139,31.53,69,1001,6.19,100,0.0,2,24.27,26.16,88.33,2.23,0.97,213.83
2026-07-17,Madaripur,Dhaka,23.167518,90.204727,31.34,71,1001,7.6,95,0.0,2,16.8,20.99,70.18,0.49,0.27,146.11
2026-07-17,Magura,Khulna,23.488077,89.420182,31.64,72,1000,7.44,94,1.33,3,32.67,36.31,86.75,2.22,3.45,265.46
2026-07-17,Manikganj,Dhaka,23.832984,89.966688,31.93,68,1001,8.12,100,0.0,3,28.67,30.67,78.65,2.01,2.32,241.62
2026-07-17,Meherpur,Khulna,23.781785,88.636937,32.8,67,999,5.25,92,0.0,5,86.44,92.89,101.63,12.62,15.47,671.64
2026-07-17,Moulvibazar,Sylhet,24.488082,91.763018,30.04,78,1003,6.29,81,0.0,2,11.66,12.75,69.59,1.24,1.03,137.24
2026-07-17,Munshiganj,Dhaka,23.54838,90.534972,31.74,66,1001,9.27,100,0.0,2,16.76,18.88,68.9,0.76,0.37,154.0
2026-07-17,Mymensingh,Mymensingh,24.888931,90.384519,30.8,73,1001,6.91,100,0.0,2,21.73,23.42,76.72,2.28,1.16,207.42
2026-07-17,Naogaon,Rajshahi,24.807323,88.944545,33.41,62,999,5.49,93,0.0,4,53.89,58.35,76.59,10.63,11.56,515.6
2026-07-17,Narail,Khulna,25.074884,90.391651,30.08,79,1002,5.62,100,0.0,2,21.98,23.78,82.58,2.0,1.33,202.64
2026-07-17,Narayanganj,Dhaka,23.623673,90.498807,31.98,65,1001,9.06,100,0.0,2,17.3,19.05,68.3,1.0,0.47,162.35
2026-07-17,Narsingdi,Dhaka,23.919715,90.715298,31.46,68,1001,8.9,100,0.0,2,16.44,17.73,66.28,1.14,0.48,159.82
2026-07-17,Natore,Rajshahi,24.413185,88.986668,32.9,65,999,5.76,99,0.0,5,79.82,84.48,95.85,16.33,17.4,695.51
2026-07-17,Netrokona,Mymensingh,24.891567,90.712533,30.27,75,1002,6.57,100,0.0,2,19.4,21.51,78.79,2.1,1.95,185.92
2026-07-17,Nilphamari,Rangpur,25.933927,88.853459,32.34,66,1000,4.81,100,0.0,3,31.65,34.62,87.22,4.35,5.9,243.87
2026-07-17,Noakhali,Chattogram,22.25408,91.17144,28.01,85,1003,11.5,100,0.0,2,15.27,21.93,74.07,0.27,0.16,124.85
2026-07-17,Pabna,Rajshahi,24.006808,89.244834,32.36,68,1000,6.81,94,0.0,4,63.5,68.05,92.84,8.9,11.15,506.91
2026-07-17,Panchagarh,Rangpur,26.320945,88.547114,31.79,67,1001,3.37,100,0.0,3,32.73,35.85,92.9,2.54,3.19,239.18
2026-07-17,Patuakhali,Barishal,22.008424,90.382683,29.61,77,1002,9.21,100,6.48,2,15.51,23.7,71.32,0.44,0.29,130.47
2026-07-17,Pirojpur,Barishal,22.50956,90.00725,31.37,67,1001,8.24,100,0.0,2,15.83,23.85,71.26,0.46,0.28,136.37
2026-07-17,Rajbari,Dhaka,23.739837,89.570413,31.7,70,1000,7.45,100,0.0,3,38.67,41.96,90.83,2.67,4.43,302.77
2026-07-17,Rajshahi,Rajshahi,24.628543,89.037686,33.21,63,1000,5.77,97,0.0,4,59.04,62.71,84.14,10.46,10.71,524.24
2026-07-17,Rangamati,Chattogram,22.650921,92.181433,26.54,92,1005,3.89,100,0.0,2,13.39,17.1,70.2,0.37,0.16,111.95
2026-07-17,Rangpur,Rangpur,25.637614,89.082638,31.95,67,1000,5.99,100,0.0,3,32.21,35.27,86.13,4.37,5.49,244.67
2026-07-17,Satkhira,Khulna,22.716651,89.074986,31.52,71,1000,7.37,99,0.24,3,30.62,36.78,82.83,0.99,0.5,220.0
2026-07-17,Shariatpur,Dhaka,23.213284,90.348125,30.76,72,1001,8.36,99,0.46,2,17.38,20.34,69.19,0.54,0.29,151.15
2026-07-17,Sherpur,Mymensingh,25.022837,90.014974,31.06,72,1001,6.96,100,0.0,2,22.65,24.17,80.99,1.98,0.72,209.59
2026-07-17,Sirajganj,Rajshahi,24.457224,89.705705,31.11,73,1000,7.5,90,0.0,3,42.82,44.82,78.89,3.97,2.95,342.01
2026-07-17,Sunamganj,Sylhet,25.067103,91.398582,28.35,84,1003,3.26,100,0.0,2,14.67,16.24,79.02,3.54,4.74,175.59
2026-07-17,Sylhet,Sylhet,24.89922,91.868527,28.81,79,1003,0.96,100,0.52,2,8.5,9.43,71.21,1.56,0.74,135.67
2026-07-17,Tangail,Dhaka,24.273851,89.937591,31.13,73,1001,7.55,81,0.0,3,31.62,33.43,74.2,3.05,2.04,272.96
2026-07-17,Thakurgaon,Rangpur,23.773143,90.359163,31.73,67,1001,8.48,99,0.0,2,18.64,20.58,69.14,1.08,0.55,171.39
