date,district,division,lat,lon,temp_c,humidity,pressure,wind_speed,clouds,rain,aqi,pm2_5,pm10,o3,no2,so2,co
2026-03-27,Bagerhat,Khulna,22.655478,89.794181,37.12,20,1007,2.57,0,0.0,3,31.2,46.54,72.1,0.23,1.09,237.44
2026-03-27,Bandarban,Chattogram,21.787476,92.412475,37.99,14,1007,2.65,0,0.0,3,25.71,36.23,63.96,0.11,0.29,215.1
2026-03-27,Barguna,Barishal,22.131336,90.117243,33.67,38,1008,7.27,0,0.0,3,25.33,38.51,63.48,0.06,0.51,201.36
2026-03-27,Barishal,Barishal,22.493403,90.354801,36.23,24,1007,1.85,0,0.0,3,27.72,41.92,65.7,0.1,0.63,216.3
2026-03-27,Bhola,Barishal,22.143569,90.790409,28.19,66,1009,5.18,0,0.0,3,25.96,38.52,62.35,0.06,0.52,206.63
2026-03-27,Bogura,Rajshahi,24.850066,89.372843,34.02,27,1007,0.9,4,0.0,5,115.62,132.03,199.87,3.42,28.53,463.39
2026-03-27,Brahmanbaria,Chattogram,23.9606,91.119089,33.06,46,1007,3.09,20,0.0,4,55.43,65.02,115.3,1.04,4.46,285.98
2026-03-27,Chandpur,Chattogram,23.224176,90.6531,32.87,36,1008,0.97,0,0.0,3,45.93,54.37,110.57,0.55,3.96,251.76
2026-03-27,Chapai Nawabganj,Rajshahi,24.599887,88.285047,36.14,15,1006,3.21,4,0.0,5,105.67,126.17,174.74,13.26,67.93,562.8
2026-03-27,Chattogram,Chattogram,22.333778,91.834435,29.93,62,1008,5.14,20,0.0,2,24.62,36.32,57.96,0.04,0.22,211.17
2026-03-27,Chuadanga,Khulna,23.643661,88.846448,36.93,18,1007,3.89,3,0.0,5,91.82,109.48,185.52,4.53,22.38,413.59
2026-03-27,Cox's Bazar,Chattogram,21.176647,92.003505,27.18,71,1008,6.81,0,0.0,2,23.41,35.29,54.46,0.04,0.25,205.17
2026-03-27,Cumilla,Chattogram,23.461061,91.180875,35.05,27,1007,2.7,0,0.0,3,49.39,58.27,114.26,0.64,4.0,265.34
2026-03-27,Dhaka,Dhaka,23.764386,90.389014,31.98,51,1007,3.09,40,0.0,4,59.6,69.89,142.02,1.36,7.88,281.25
2026-03-27,Dinajpur,Rangpur,25.626071,88.634623,32.58,26,1007,2.26,15,0.0,5,123.32,141.49,216.68,4.83,34.53,458.69
2026-03-27,Faridpur,Dhaka,23.604018,89.841554,35.74,23,1007,3.5,0,0.0,4,66.23,78.63,158.48,2.05,11.63,302.53
2026-03-27,Feni,Chattogram,23.01276,91.404923,34.82,28,1008,5.46,0,0.0,3,39.83,49.3,99.01,0.26,2.32,242.35
2026-03-27,Gaibandha,Rangpur,25.086001,89.869644,33.61,27,1007,2.33,0,0.0,5,109.79,123.71,198.27,2.32,22.15,435.54
2026-03-27,Gazipur,Dhaka,23.999756,90.417363,32.01,51,1007,3.09,40,0.0,4,62.96,72.99,140.43,1.57,7.57,297.03
2026-03-27,Gopalganj,Dhaka,23.004994,89.830318,37.04,19,1007,2.87,0,0.0,3,46.08,58.59,118.24,1.0,6.45,250.11
2026-03-27,Habiganj,Sylhet,24.374603,91.414027,33.76,32,1008,1.56,0,0.0,4,60.11,69.36,142.3,1.21,9.25,293.99
2026-03-27,Jamalpur,Mymensingh,24.925587,89.943668,32.91,31,1008,1.24,5,0.0,5,106.9,121.09,195.26,2.39,19.79,437.98
2026-03-27,Jashore,Khulna,23.166526,89.209442,36.61,20,1007,3.58,0,0.0,4,54.06,67.68,133.53,1.71,9.37,279.55
2026-03-27,Jhalokathi,Barishal,22.56239,90.174282,36.62,22,1007,2.81,0,0.0,3,27.38,42.37,63.89,0.12,0.64,217.01
2026-03-27,Jhenaidah,Khulna,23.544696,89.173194,36.67,19,1007,3.56,0,0.0,5,75.05,90.26,169.69,3.25,16.85,343.01
2026-03-27,Joypurhat,Rajshahi,25.111402,88.98842,34.08,26,1007,0.99,3,0.0,5,121.76,139.44,209.08,4.99,42.97,464.09
2026-03-27,Khagrachhari,Chattogram,23.1078,91.988996,36.99,18,1007,1.93,0,0.0,3,38.89,47.57,97.75,0.2,1.79,240.85
2026-03-27,Khulna,Khulna,22.937209,89.285274,36.97,20,1007,3.93,0,0.0,3,45.44,59.63,108.94,1.06,5.58,268.33
2026-03-27,Kishoreganj,Dhaka,24.433982,90.785723,33.87,33,1008,0.35,3,0.0,5,93.47,105.78,173.51,2.25,12.62,408.97
2026-03-27,Kurigram,Rangpur,25.813013,89.643052,29.16,40,1008,3.03,2,0.0,5,107.86,120.3,187.4,2.05,17.19,438.99
2026-03-27,Kushtia,Khulna,23.898795,89.129554,36.68,18,1007,3.66,5,0.0,5,97.95,116.58,193.53,4.95,24.2,438.49
2026-03-27,Lakshmipur,Chattogram,22.944537,90.827635,32.41,40,1008,2.75,0,0.0,3,34.71,45.92,84.96,0.21,1.67,229.84
2026-03-27,Lalmonirhat,Rangpur,25.916351,89.446139,31.62,31,1008,2.17,4,0.0,5,109.44,122.06,192.32,2.31,19.11,437.7
2026-03-27,Madaripur,Dhaka,23.167518,90.204727,36.52,19,1007,3.07,0,0.0,3,42.24,53.55,107.32,0.59,4.35,239.75
2026-03-27,Magura,Khulna,23.488077,89.420182,36.47,20,1007,3.73,0,0.0,4,68.8,82.83,165.77,2.77,14.93,315.48
2026-03-27,Manikganj,Dhaka,23.832984,89.966688,34.92,25,1007,2.18,0,0.0,4,72.24,85.36,166.4,2.38,12.87,324.24
2026-03-27,Meherpur,Khulna,23.781785,88.636937,37.01,17,1006,3.88,4,0.0,5,90.53,107.62,179.09,3.59,20.87,405.01
2026-03-27,Moulvibazar,Sylhet,24.488082,91.763018,33.52,32,1008,1.25,0,0.0,4,63.16,72.05,153.88,1.32,11.59,301.85
2026-03-27,Munshiganj,Dhaka,23.54838,90.534972,36.39,23,1007,2.82,0,0.0,4,52.61,61.96,126.04,0.98,5.9,265.6
2026-03-27,Mymensingh,Mymensingh,24.888931,90.384519,32.61,34,1008,2.01,9,0.0,5,101.49,114.57,188.57,2.04,17.06,423.99
2026-03-27,Naogaon,Rajshahi,24.807323,88.944545,34.28,25,1007,1.59,0,0.0,5,125.35,143.42,203.03,4.48,37.12,495.12
2026-03-27,Narail,Khulna,25.074884,90.391651,32.42,34,1008,2.38,22,0.0,5,104.24,117.27,191.66,1.9,18.92,426.29
2026-03-27,Narayanganj,Dhaka,23.623673,90.498807,32.01,21,1007,2.55,0,0.0,4,57.79,67.48,133.24,1.28,6.74,281.32
2026-03-27,Narsingdi,Dhaka,23.919715,90.715298,35.29,25,1007,2.37,0,0.0,4,60.98,70.42,131.33,1.51,6.39,296.12
2026-03-27,Natore,Rajshahi,24.413185,88.986668,35.99,19,1007,3.47,4,0.0,5,132.53,151.39,190.91,3.47,25.38,557.33
2026-03-27,Netrokona,Mymensingh,24.891567,90.712533,31.69,38,1008,2.61,14,0.0,5,94.51,106.76,178.26,1.86,16.08,405.65
2026-03-27,Nilphamari,Rangpur,25.933927,88.853459,31.53,30,1008,2.75,6,0.0,5,124.13,140.12,212.41,4.71,34.03,472.18
2026-03-27,Noakhali,Chattogram,22.25408,91.17144,26.93,69,1009,3.7,0,0.0,3,26.15,38.78,62.65,0.06,0.45,209.72
2026-03-27,Pabna,Rajshahi,24.006808,89.244834,36.52,19,1007,3.61,7,0.0,5,99.22,116.91,189.43,3.91,21.09,439.48
2026-03-27,Panchagarh,Rangpur,26.320945,88.547114,30.67,33,1008,2.87,9,0.0,5,107.17,122.69,197.25,2.5,15.35,482.82
2026-03-27,Patuakhali,Barishal,22.008424,90.382683,31.53,50,1008,5.92,0,0.0,3,25.54,38.51,63.1,0.06,0.51,203.12
2026-03-27,Pirojpur,Barishal,22.50956,90.00725,36.84,21,1007,2.84,0,0.0,3,27.38,42.37,63.89,0.12,0.64,217.01
2026-03-27,Rajbari,Dhaka,23.739837,89.570413,36.29,21,1007,3.87,0,0.0,5,75.85,91.3,173.79,3.25,16.82,345.13
2026-03-27,Rajshahi,Rajshahi,24.628543,89.037686,34.85,23,1007,2.61,3,0.0,5,122.58,140.31,196.7,3.61,27.84,505.27
2026-03-27,Rangamati,Chattogram,22.650921,92.181433,34.24,24,1007,0.18,0,0.0,3,30.8,41.58,76.69,0.47,0.63,245.73
2026-03-27,Rangpur,Rangpur,25.637614,89.082638,32.18,30,1008,2.26,3,0.0,5,131.73,148.41,216.03,5.0,37.41,476.18
2026-03-27,Satkhira,Khulna,22.716651,89.074986,36.69,22,1007,3.41,0,0.0,3,41.06,55.48,91.92,0.51,2.19,270.12
2026-03-27,Shariatpur,Dhaka,23.213284,90.348125,33.85,30,1007,0.88,0,0.0,3,48.95,58.51,127.04,0.82,6.15,247.96
2026-03-27,Sherpur,Mymensingh,25.022837,90.014974,32.91,31,1008,2.81,6,0.0,5,108.85,122.28,197.18,2.02,19.48,437.45
2026-03-27,Sirajganj,Rajshahi,24.457224,89.705705,26.83,52,1008,2.39,5,0.0,5,105.05,120.86,191.6,2.69,16.45,461.18
2026-03-27,Sunamganj,Sylhet,25.067103,91.398582,31.75,38,1009,1.7,25,0.0,5,114.05,128.51,193.49,4.34,25.92,476.21
2026-03-27,Sylhet,Sylhet,24.89922,91.868527,32.41,34,1008,1.13,4,0.0,5,80.9,90.89,171.87,2.32,14.89,359.16
2026-03-27,Tangail,Dhaka,24.273851,89.937591,31.98,35,1007,1.72,5,0.0,5,91.5,105.69,181.61,2.48,14.34,403.35
2026-03-27,Thakurgaon,Rangpur,23.773143,90.359163,32.02,51,1007,3.09,40,0.0,4,59.6,69.89,142.02,1.36,7.88,281.25
