date,district,division,lat,lon,temp_c,humidity,pressure,wind_speed,clouds,rain,aqi,pm2_5,pm10,o3,no2,so2,co
2026-02-10,Bagerhat,Khulna,22.655478,89.794181,29.5,16,1014,3.44,0,0.0,5,215.29,244.49,177.76,1.87,19.2,895.47
2026-02-10,Bandarban,Chattogram,21.787476,92.412475,31.15,17,1013,1.52,98,0.0,5,114.66,126.51,187.84,1.0,8.01,454.77
2026-02-10,Barguna,Barishal,22.131336,90.117243,29.25,17,1014,3.62,0,0.0,5,139.04,159.32,189.06,0.91,18.37,489.57
2026-02-10,Barishal,Barishal,22.493403,90.354801,29.39,17,1014,3.36,0,0.0,5,148.12,167.34,170.53,0.98,14.46,536.23
2026-02-10,Bhola,Barishal,22.143569,90.790409,22.7,46,1015,1.7,0,0.0,5,121.12,136.55,185.27,0.75,12.18,422.62
2026-02-10,Bogura,Rajshahi,24.850066,89.372843,28.08,25,1014,1.92,0,0.0,5,167.77,188.04,192.53,5.22,29.82,616.86
2026-02-10,Brahmanbaria,Chattogram,23.9606,91.119089,27.06,44,1014,2.06,0,0.0,5,148.75,167.26,174.84,2.15,12.58,597.53
2026-02-10,Chandpur,Chattogram,23.224176,90.6531,25.84,33,1014,2.52,0,0.0,5,108.86,121.92,172.17,1.33,11.27,444.23
2026-02-10,Chapai Nawabganj,Rajshahi,24.599887,88.285047,27.15,29,1015,2.29,0,0.0,5,85.85,100.95,175.23,4.92,27.39,406.74
2026-02-10,Chattogram,Chattogram,22.333778,91.834435,25.93,38,1014,4.63,20,0.0,5,120.92,135.05,162.36,0.63,6.86,466.47
2026-02-10,Chuadanga,Khulna,23.643661,88.846448,26.95,25,1015,3.4,0,0.0,5,170.08,199.55,221.61,12.47,53.88,789.82
2026-02-10,Cox's Bazar,Chattogram,21.176647,92.003505,22.1,55,1014,7.71,72,0.0,5,90.47,103.05,166.21,0.48,5.35,364.94
2026-02-10,Cumilla,Chattogram,23.461061,91.180875,28.64,22,1014,3.27,0,0.0,5,134.14,151.04,173.69,1.67,10.92,543.2
2026-02-10,Dhaka,Dhaka,23.764386,90.389014,26.98,39,1014,3.09,0,0.0,5,139.66,155.92,177.93,2.13,20.81,526.59
2026-02-10,Dinajpur,Rangpur,25.626071,88.634623,28.04,27,1014,2.06,0,0.0,5,142.08,158.5,188.84,4.11,21.14,547.6
2026-02-10,Faridpur,Dhaka,23.604018,89.841554,26.44,26,1015,2.2,0,0.0,5,153.99,173.63,191.13,3.25,30.67,583.2
2026-02-10,Feni,Chattogram,23.01276,91.404923,29.48,18,1014,2.25,0,0.0,5,136.89,153.18,169.77,1.18,8.95,540.29
2026-02-10,Gaibandha,Rangpur,25.086001,89.869644,28.02,27,1014,2.58,0,0.0,5,169.79,188.03,171.44,2.47,14.33,639.74
2026-02-10,Gazipur,Dhaka,23.999756,90.417363,27.01,39,1014,3.09,0,0.0,5,141.19,157.04,174.56,2.09,16.77,536.21
2026-02-10,Gopalganj,Dhaka,23.004994,89.830318,28.49,19,1014,3.55,0,0.0,5,159.89,181.4,183.02,2.54,26.97,625.85
2026-02-10,Habiganj,Sylhet,24.374603,91.414027,27.8,24,1014,1.9,0,0.0,5,133.41,149.12,183.63,3.16,13.43,574.05
2026-02-10,Jamalpur,Mymensingh,24.925587,89.943668,27.6,28,1014,2.38,0,0.0,5,169.63,188.28,175.34,2.69,17.39,632.55
2026-02-10,Jashore,Khulna,23.166526,89.209442,27.74,19,1015,3.58,0,0.0,5,210.79,241.95,222.2,7.22,46.72,883.78
2026-02-10,Jhalokathi,Barishal,22.56239,90.174282,29.54,17,1014,3.62,0,0.0,5,151.68,171.9,165.66,1.0,15.68,556.16
2026-02-10,Jhenaidah,Khulna,23.544696,89.173194,27.18,22,1015,3.24,0,0.0,5,173.77,202.6,221.98,10.67,53.75,766.6
2026-02-10,Joypurhat,Rajshahi,25.111402,88.98842,28.06,26,1014,2.3,0,0.0,5,160.76,181.1,192.38,8.81,42.45,596.37
2026-02-10,Khagrachhari,Chattogram,23.1078,91.988996,31.1,15,1014,1.21,1,0.0,5,136.78,151.1,167.97,0.98,9.34,528.44
2026-02-10,Khulna,Khulna,22.937209,89.285274,28.25,18,1015,3.81,0,0.0,5,239.95,273.58,219.47,5.92,40.42,1013.71
2026-02-10,Kishoreganj,Dhaka,24.433982,90.785723,27.8,25,1014,1.59,0,0.0,5,142.58,158.55,162.59,1.73,10.62,558.39
2026-02-10,Kurigram,Rangpur,25.813013,89.643052,25.59,35,1014,1.18,0,0.0,5,162.0,177.81,166.25,2.25,10.47,640.31
2026-02-10,Kushtia,Khulna,23.898795,89.129554,26.85,25,1015,2.34,0,0.0,5,165.18,191.88,213.45,9.29,45.73,729.47
2026-02-10,Lakshmipur,Chattogram,22.944537,90.827635,26.96,29,1014,3.75,0,0.0,5,137.3,153.89,173.16,1.13,10.49,515.61
2026-02-10,Lalmonirhat,Rangpur,25.916351,89.446139,28.24,27,1014,2.4,0,0.0,5,163.73,179.82,171.17,2.55,12.37,636.77
2026-02-10,Madaripur,Dhaka,23.167518,90.204727,28.18,22,1014,3.04,0,0.0,5,132.6,149.16,170.25,1.44,17.67,506.6
2026-02-10,Magura,Khulna,23.488077,89.420182,27.3,20,1015,2.99,0,0.0,5,176.71,202.65,216.76,5.34,44.85,694.26
2026-02-10,Manikganj,Dhaka,23.832984,89.966688,26.19,30,1015,2.84,0,0.0,5,157.73,177.22,190.95,3.34,30.0,590.76
2026-02-10,Meherpur,Khulna,23.781785,88.636937,26.92,27,1015,3.24,0,0.0,5,147.92,174.13,207.39,10.18,46.71,690.69
2026-02-10,Moulvibazar,Sylhet,24.488082,91.763018,27.67,24,1014,2.38,0,0.0,5,122.81,136.53,186.17,3.43,12.09,550.63
2026-02-10,Munshiganj,Dhaka,23.54838,90.534972,28.34,24,1014,3.0,0,0.0,5,123.71,138.38,173.7,1.69,15.92,485.08
2026-02-10,Mymensingh,Mymensingh,24.888931,90.384519,28.56,26,1014,0.3,0,0.0,5,159.94,177.05,164.61,1.85,11.87,616.8
2026-02-10,Naogaon,Rajshahi,24.807323,88.944545,27.71,28,1015,2.32,0,0.0,5,157.25,177.64,194.37,7.51,39.22,589.0
2026-02-10,Narail,Khulna,25.074884,90.391651,28.6,26,1014,1.07,0,0.0,5,160.39,177.25,161.36,1.69,9.55,629.17
2026-02-10,Narayanganj,Dhaka,23.623673,90.498807,27.01,23,1014,2.82,0,0.0,5,132.45,147.71,174.13,1.89,16.34,510.63
2026-02-10,Narsingdi,Dhaka,23.919715,90.715298,27.74,27,1014,2.35,0,0.0,5,133.43,148.29,169.41,1.8,12.18,519.93
2026-02-10,Natore,Rajshahi,24.413185,88.986668,26.63,30,1015,1.79,0,0.0,5,150.24,170.72,198.35,4.89,32.75,574.23
2026-02-10,Netrokona,Mymensingh,24.891567,90.712533,27.77,28,1014,0.61,0,0.0,5,143.94,159.55,159.45,1.59,8.58,583.64
2026-02-10,Nilphamari,Rangpur,25.933927,88.853459,28.31,27,1014,1.68,0,0.0,5,155.26,171.83,183.73,3.96,20.31,591.51
2026-02-10,Noakhali,Chattogram,22.25408,91.17144,20.19,57,1015,2.41,0,0.0,5,126.59,142.44,175.63,0.75,9.5,457.87
2026-02-10,Pabna,Rajshahi,24.006808,89.244834,26.85,26,1015,1.64,0,0.0,5,163.56,187.11,205.04,6.2,38.61,660.05
2026-02-10,Panchagarh,Rangpur,26.320945,88.547114,28.19,27,1014,2.26,0,0.0,5,148.15,163.9,177.1,3.16,18.52,591.93
2026-02-10,Patuakhali,Barishal,22.008424,90.382683,26.18,33,1014,2.44,1,0.0,5,133.07,151.73,187.8,0.86,16.3,467.24
2026-02-10,Pirojpur,Barishal,22.50956,90.00725,29.55,16,1014,4.02,0,0.0,5,151.68,171.9,165.66,1.0,15.68,556.16
2026-02-10,Rajbari,Dhaka,23.739837,89.570413,27.03,24,1015,1.64,0,0.0,5,168.24,192.61,209.94,5.0,41.48,664.52
2026-02-10,Rajshahi,Rajshahi,24.628543,89.037686,27.33,28,1015,2.59,0,0.0,5,160.25,180.82,195.95,5.57,33.44,598.99
2026-02-10,Rangamati,Chattogram,22.650921,92.181433,27.75,23,1014,0.21,3,0.0,5,140.71,155.51,179.38,1.62,8.95,563.11
2026-02-10,Rangpur,Rangpur,25.637614,89.082638,28.51,26,1014,1.57,0,0.0,5,156.92,173.79,185.18,4.18,20.11,593.88
2026-02-10,Satkhira,Khulna,22.716651,89.074986,28.38,19,1015,3.98,0,0.0,5,294.31,332.76,243.73,6.92,46.49,1240.26
2026-02-10,Shariatpur,Dhaka,23.213284,90.348125,25.9,30,1015,2.37,0,0.0,5,121.07,136.17,174.37,1.63,19.71,474.9
2026-02-10,Sherpur,Mymensingh,25.022837,90.014974,28.66,26,1014,1.61,0,0.0,5,168.28,185.85,163.1,1.78,10.54,645.69
2026-02-10,Sirajganj,Rajshahi,24.457224,89.705705,19.01,54,1015,1.47,0,0.0,5,171.39,191.87,190.89,3.82,27.56,627.35
2026-02-10,Sunamganj,Sylhet,25.067103,91.398582,27.51,24,1014,1.22,0,0.0,5,129.27,142.99,177.58,4.87,12.94,607.72
2026-02-10,Sylhet,Sylhet,24.89922,91.868527,27.43,22,1014,2.0,0,0.0,5,116.53,128.43,183.25,3.76,7.45,532.26
2026-02-10,Tangail,Dhaka,24.273851,89.937591,24.14,39,1015,2.43,0,0.0,5,165.45,184.94,185.74,3.18,25.69,609.01
2026-02-10,Thakurgaon,Rangpur,23.773143,90.359163,27.02,39,1014,3.09,0,0.0,5,139.66,155.92,177.93,2.13,20.81,526.59
