date,district,division,lat,lon,temp_c,humidity,pressure,wind_speed,clouds,rain,aqi,pm2_5,pm10,o3,no2,so2,co
2026-03-16,Bagerhat,Khulna,22.655478,89.794181,35.21,35,1009,7.7,6,0.0,2,22.3,39.71,56.78,0.07,0.36,238.79
2026-03-16,Bandarban,Chattogram,21.787476,92.412475,33.76,31,1011,1.71,22,0.0,3,29.24,35.94,55.05,0.04,0.11,269.9
2026-03-16,Barguna,Barishal,22.131336,90.117243,30.36,52,1011,7.93,10,0.0,3,25.94,41.07,56.59,0.04,0.31,272.56
2026-03-16,Barishal,Barishal,22.493403,90.354801,33.03,40,1010,7.7,21,0.0,3,25.09,41.41,57.24,0.05,0.3,259.23
2026-03-16,Bhola,Barishal,22.143569,90.790409,26.17,77,1011,6.8,51,0.0,3,27.54,40.47,57.99,0.04,0.26,273.77
2026-03-16,Bogura,Rajshahi,24.850066,89.372843,32.91,36,1008,1.63,100,0.0,4,73.42,89.61,137.98,5.52,23.06,385.87
2026-03-16,Brahmanbaria,Chattogram,23.9606,91.119089,32.06,55,1009,4.12,75,0.0,2,23.39,34.4,60.51,0.55,0.95,236.07
2026-03-16,Chandpur,Chattogram,23.224176,90.6531,31.89,45,1009,6.92,59,0.0,2,22.81,33.41,67.59,0.17,0.57,216.39
2026-03-16,Chapai Nawabganj,Rajshahi,24.599887,88.285047,35.37,19,1007,3.38,100,0.0,5,93.45,108.05,152.19,8.05,41.27,459.67
2026-03-16,Chattogram,Chattogram,22.333778,91.834435,29.93,66,1011,5.66,75,0.0,3,30.41,41.01,57.32,0.04,0.19,269.05
2026-03-16,Chuadanga,Khulna,23.643661,88.846448,36.6,25,1007,5.44,99,0.0,3,39.96,53.32,113.09,4.24,13.3,304.98
2026-03-16,Cox's Bazar,Chattogram,21.176647,92.003505,26.06,75,1012,3.84,10,0.0,3,29.92,36.88,52.55,0.03,0.13,283.17
2026-03-16,Cumilla,Chattogram,23.461061,91.180875,30.61,50,1010,7.07,97,0.0,2,24.18,35.42,65.03,0.28,0.61,230.85
2026-03-16,Dhaka,Dhaka,23.764386,90.389014,30.98,45,1008,2.06,40,0.0,3,25.5,37.53,74.18,1.22,3.88,235.95
2026-03-16,Dinajpur,Rangpur,25.626071,88.634623,32.49,36,1007,1.14,7,0.0,5,109.01,130.49,124.09,12.81,38.82,545.85
2026-03-16,Faridpur,Dhaka,23.604018,89.841554,35.51,32,1007,5.54,98,0.0,3,30.15,43.57,87.15,2.26,7.71,257.45
2026-03-16,Feni,Chattogram,23.01276,91.404923,30.25,54,1011,7.5,81,0.0,3,27.55,39.04,65.61,0.09,0.28,247.01
2026-03-16,Gaibandha,Rangpur,25.086001,89.869644,30.55,52,1009,2.97,100,0.0,4,50.38,63.63,119.73,3.72,11.35,332.45
2026-03-16,Gazipur,Dhaka,23.999756,90.417363,31.01,45,1008,2.06,40,0.0,2,24.85,36.97,67.97,1.27,3.24,242.44
2026-03-16,Gopalganj,Dhaka,23.004994,89.830318,36.82,29,1008,6.76,44,0.0,2,23.28,37.43,69.98,0.58,2.14,225.49
2026-03-16,Habiganj,Sylhet,24.374603,91.414027,30.15,56,1009,3.51,81,0.0,2,23.06,31.47,62.43,1.01,1.76,246.38
2026-03-16,Jamalpur,Mymensingh,24.925587,89.943668,31.18,49,1008,1.47,100,0.0,3,49.25,63.13,115.82,4.0,11.63,336.02
2026-03-16,Jashore,Khulna,23.166526,89.209442,36.05,31,1008,6.48,99,0.0,2,23.41,37.1,73.78,1.37,4.31,235.63
2026-03-16,Jhalokathi,Barishal,22.56239,90.174282,33.84,39,1009,7.89,13,0.0,2,24.52,41.95,56.11,0.05,0.32,257.97
2026-03-16,Jhenaidah,Khulna,23.544696,89.173194,36.47,27,1007,5.91,100,0.0,3,32.09,45.26,95.52,3.19,9.94,274.42
2026-03-16,Joypurhat,Rajshahi,25.111402,88.98842,33.43,33,1007,1.93,49,0.0,5,99.18,115.05,151.8,7.6,39.74,432.32
2026-03-16,Khagrachhari,Chattogram,23.1078,91.988996,33.33,35,1010,4.18,100,0.0,3,29.85,40.28,65.21,0.05,0.21,253.96
2026-03-16,Khulna,Khulna,22.937209,89.285274,36.12,31,1008,6.94,100,0.0,2,22.04,36.62,65.97,0.75,2.38,232.48
2026-03-16,Kishoreganj,Dhaka,24.433982,90.785723,31.5,48,1008,1.87,90,0.0,2,21.75,31.25,65.32,2.4,2.57,257.84
2026-03-16,Kurigram,Rangpur,25.813013,89.643052,26.46,69,1009,5.6,82,0.0,4,52.31,66.6,80.63,6.89,13.35,379.4
2026-03-16,Kushtia,Khulna,23.898795,89.129554,35.96,27,1007,4.95,78,0.0,3,45.74,60.76,123.2,4.98,16.19,328.38
2026-03-16,Lakshmipur,Chattogram,22.944537,90.827635,30.77,52,1010,8.76,54,0.0,3,25.53,38.54,63.3,0.08,0.33,246.03
2026-03-16,Lalmonirhat,Rangpur,25.916351,89.446139,27.19,64,1009,4.33,92,0.0,4,61.72,77.92,90.37,7.88,17.74,396.83
2026-03-16,Madaripur,Dhaka,23.167518,90.204727,36.58,28,1008,6.3,30,0.0,2,23.39,36.7,67.22,0.24,0.99,224.95
2026-03-16,Magura,Khulna,23.488077,89.420182,36.1,29,1007,5.78,100,0.0,3,30.56,45.01,91.69,2.73,9.13,262.22
2026-03-16,Manikganj,Dhaka,23.832984,89.966688,34.62,36,1008,4.44,100,0.0,3,33.53,47.54,92.38,2.97,10.06,278.24
2026-03-16,Meherpur,Khulna,23.781785,88.636937,36.35,25,1007,4.88,100,0.0,3,41.16,53.84,113.34,3.44,11.43,301.03
2026-03-16,Moulvibazar,Sylhet,24.488082,91.763018,28.31,62,1010,3.36,99,0.0,2,23.5,30.78,63.36,1.04,1.98,250.66
2026-03-16,Munshiganj,Dhaka,23.54838,90.534972,35.75,31,1008,5.45,23,0.0,2,23.52,34.86,69.22,0.59,1.71,223.39
2026-03-16,Mymensingh,Mymensingh,24.888931,90.384519,28.7,62,1009,4.2,74,0.0,3,36.07,47.51,97.31,3.06,6.45,303.23
2026-03-16,Naogaon,Rajshahi,24.807323,88.944545,33.83,29,1007,1.73,100,0.0,5,90.97,107.21,147.84,6.3,31.95,421.74
2026-03-16,Narail,Khulna,25.074884,90.391651,26.57,72,1010,4.2,98,0.0,3,37.79,49.03,102.8,2.81,6.13,307.31
2026-03-16,Narayanganj,Dhaka,23.623673,90.498807,31.01,30,1008,5.2,30,0.0,2,24.19,35.91,68.6,0.93,2.47,232.91
2026-03-16,Narsingdi,Dhaka,23.919715,90.715298,34.64,35,1008,5.47,45,0.0,2,22.91,34.74,60.71,0.88,1.32,236.6
2026-03-16,Natore,Rajshahi,24.413185,88.986668,34.99,26,1007,3.59,100,0.0,4,74.54,91.54,139.92,3.7,16.36,400.55
2026-03-16,Netrokona,Mymensingh,24.891567,90.712533,27.83,67,1010,4.91,61,0.0,3,25.1,33.94,77.56,2.3,3.1,269.71
2026-03-16,Nilphamari,Rangpur,25.933927,88.853459,29.82,49,1008,1.87,40,0.0,5,97.46,116.85,118.77,11.5,35.13,493.69
2026-03-16,Noakhali,Chattogram,22.25408,91.17144,25.61,80,1012,6.35,46,0.0,3,28.17,40.4,59.48,0.04,0.23,269.22
2026-03-16,Pabna,Rajshahi,24.006808,89.244834,35.86,28,1007,4.94,68,0.0,4,52.29,69.06,122.97,4.88,16.54,352.08
2026-03-16,Panchagarh,Rangpur,26.320945,88.547114,28.62,52,1008,4.02,10,0.0,5,80.63,96.8,121.59,4.32,15.21,438.02
2026-03-16,Patuakhali,Barishal,22.008424,90.382683,28.82,61,1011,7.39,16,0.0,3,26.47,40.87,57.06,0.04,0.29,272.96
2026-03-16,Pirojpur,Barishal,22.50956,90.00725,34.14,39,1009,7.86,6,0.0,2,24.52,41.95,56.11,0.05,0.32,257.97
2026-03-16,Rajbari,Dhaka,23.739837,89.570413,35.83,30,1007,5.23,100,0.0,3,36.82,52.38,101.93,3.76,12.59,294.31
2026-03-16,Rajshahi,Rajshahi,24.628543,89.037686,34.29,27,1007,2.78,99,0.0,5,76.75,93.76,139.81,5.1,22.19,402.39
2026-03-16,Rangamati,Chattogram,22.650921,92.181433,32.47,38,1010,2.71,26,0.0,3,30.81,40.5,61.61,0.21,0.19,265.0
2026-03-16,Rangpur,Rangpur,25.637614,89.082638,31.8,41,1008,2.6,1,0.0,5,98.35,119.08,118.32,12.98,38.65,489.96
2026-03-16,Satkhira,Khulna,22.716651,89.074986,35.39,34,1008,7.52,88,0.0,2,19.81,33.93,58.95,0.15,0.49,225.76
2026-03-16,Shariatpur,Dhaka,23.213284,90.348125,34.45,36,1008,5.15,19,0.0,2,22.89,34.21,72.1,0.33,1.33,211.38
2026-03-16,Sherpur,Mymensingh,25.022837,90.014974,30.47,52,1009,3.39,100,0.0,3,43.3,55.9,112.35,3.08,7.52,323.12
2026-03-16,Sirajganj,Rajshahi,24.457224,89.705705,27.66,66,1008,1.06,23,0.0,4,55.9,73.18,119.16,5.02,15.04,372.58
2026-03-16,Sunamganj,Sylhet,25.067103,91.398582,23.22,84,1011,3.08,100,0.0,2,22.29,30.12,69.79,4.61,5.83,293.21
2026-03-16,Sylhet,Sylhet,24.89922,91.868527,25.4,72,1011,2.48,100,0.0,2,23.47,29.24,67.6,2.77,4.03,270.34
2026-03-16,Tangail,Dhaka,24.273851,89.937591,31.4,49,1008,2.7,97,0.0,3,42.5,57.27,102.79,4.04,11.48,321.54
2026-03-16,Thakurgaon,Rangpur,23.773143,90.359163,31.02,45,1008,2.06,40,0.0,3,25.5,37.53,74.18,1.22,3.88,235.95
